feed_timestamp,entity_id,vehicle_id,route_id,trip_id,stop_id,stop_name,dist_to_stop_m,current_stop_sequence,current_status,congestion_level,vehicle_timestamp,lat,lon,speed_mps,bearing,odometer
1768341027,0,3490101367,4,2199420:566261:568900,S02076,Centennial Drive (south side of Princess),321.456944431555,4,2,1,1768341023,44.258155822753906,-76.5617446899414,12.5,93.5,4233980.0
1768341027,1,3490101951,6,2181487:564395:568524,S02072,1000 King Street West (south side),219.37177618878502,25,2,1,1768341025,44.21992111206055,-76.53797149658203,11.380000114440918,91.4000015258789,291403.0
1768341027,2,3490101369,19A,2181211:566769:568941,S09124,,,12,2,1,1768341022,44.261905670166016,-76.5973892211914,15.0,281.29998779296875,120537.0
1768341027,3,3490102106,701,2182031:568083:568958,S00763,,,11,2,1,1768341026,44.23863220214844,-76.53852081298828,12.770000457763672,263.29998779296875,860549.0
1768341027,4,3490101254,502,2199533:566750:568502,S00584,Centennial Drive (north side of Princess),202.91649733047024,10,2,1,1768341016,44.25826644897461,-76.55717468261719,9.15999984741211,270.5,1071179.0
1768341027,5,3490102402,601,2182373:565093:568495,S02080,Innovation Drive at Highway 15 (north side),6.572993931812592,1,1,1,1768341011,44.27223205566406,-76.44615936279297,0.0,,48199.0
1768341027,6,3490102401,,,,,,,2,,1768340984,44.26152038574219,-76.50714874267578,0.0,,0.0
1768341027,7,3490101841,,,,,,,2,,1768338356,,,,,
1768341027,8,3490102107,,,,,,,2,,1768341000,44.26133346557617,-76.50658416748047,0.0,,268097.0
1768341027,9,3490101688,7,2181862:567851:568424,S00746,First Canada Avenue (east side of Division),461.73615521683973,17,2,1,1768341025,44.259517669677734,-76.49776458740234,15.829999923706055,348.70001220703125,2192759.0
1768341027,10,3490100014,,,,,,,2,,1768340938,44.26132583618164,-76.50658416748047,0.0,,0.0
1768341027,11,3490101687,10,2181662:568003:568355,S02084,Cataraqui Centre Transfer Point Platform 7,8.164168892704382,1,1,1,1768341003,44.25513458251953,-76.57289123535156,0.0,,4877541.0
1768341027,12,3490100016,,,,,,,2,,1768339503,44.26150894165039,-76.5071029663086,0.0,,0.0
1768341027,13,3490100056,,,,,,,2,,1768340241,44.25495147705078,-76.57286071777344,0.0,,0.0
1768341027,14,3490101046,501,2199377:566555:568929,S00427,Kingston General Hospital (north side of Stuart),634.2170222858877,2,2,1,1768341014,44.22713851928711,-76.48778533935547,6.630000114440918,212.60000610351562,0.0
1768341027,15,3490101257,12,2182324:564356:568328,S00441,Pembroke Street (north side of Union),152.05185115706882,21,2,1,1768341023,44.2249641418457,-76.50836181640625,10.550000190734863,247.10000610351562,601041.0
1768341027,16,3490100078,,,,,,,2,,1768339640,44.228397369384766,-76.57582092285156,9.619999885559082,282.29998779296875,0.0
1768341027,17,3490100005,,,,,,,2,,1768340505,44.24057388305664,-76.51881408691406,0.0,,0.0
1768341027,18,3490101359,2,2181348:564973:568419,S09179,,,6,2,1,1768340999,44.239925384521484,-76.52909088134766,6.110000133514404,180.5,209459.0
1768341027,19,3490101901,802,2182145:564907:568994,S02040,Downtown Transfer Point Platform 6,15.113116069511461,1,1,1,1768341013,44.2313117980957,-76.48430633544922,0.0,,0.0
1768341027,20,3490101360,2,2181318:564953:568381,S09076,Douglas Avenue (south side of Elliott),141.44033435409813,17,2,1,1768341023,44.25596237182617,-76.50580596923828,3.180000066757202,118.9000015258789,0.0
1768341027,21,3490101258,801,2182172:563986:568895,S02039,Downtown Transfer Point Platform 4,21.354446561573504,10,1,1,1768341017,44.23119354248047,-76.4844741821289,0.8299999833106995,,411013.0
1768341027,22,3490101256,16,2192640:567862:568970,S02070,St. Lawrence College Transfer Point,188.85001474821428,1,0,1,1768341025,44.22540283203125,-76.5261001586914,5.269999980926514,256.5,1514385.0
1768341027,23,3490101923,502,2199490:566086:568242,S09037,Centre 70 Park and Ride (west side of Days),1060.637240980231,9,2,1,1768341025,44.22830581665039,-76.57172393798828,10.550000190734863,87.80000305175781,174943.0
1768341027,24,3490101826,501,2199378:566889:568336,S02039,Downtown Transfer Point Platform 4,4.036056517938354,1,1,1,1768341022,44.231353759765625,-76.484375,0.0,,398291.0
1768341027,25,3490101812,601,2182340:565604:568390,S00127,Highway 2 at Royal Military College (north side),814.4336283056497,11,2,1,1768341024,44.24100112915039,-76.45903778076172,9.15999984741211,162.1999969482422,230653.0
1768341027,26,3490101840,602,2182357:566488:568504,S09225,Barrett Court (east side of Highway 15),27.503570570607486,6,1,1,1768341022,44.25025177001953,-76.4607925415039,0.0,,363806.0
1768341027,27,3490101827,16,2192639:567035:568948,S00746,First Canada Avenue (east side of Division),109.81558303154077,32,2,1,1768341002,44.262672424316406,-76.49816131591797,11.9399995803833,359.70001220703125,2280535.0
1768341027,28,3490101821,6,2181488:565851:568442,S09054,Bayridge Drive (south side of Taylor-Kidd),129.6456535688094,7,2,1,1768341018,44.25122833251953,-76.58930206298828,10.829999923706055,198.1999969482422,1607883.0
1768341027,29,3490101803,502,2199534:566944:568951,S00400,Andersen Drive (north side of Princess),1152.594006435193,8,2,1,1768341014,44.2532958984375,-76.53699493408203,3.880000114440918,311.5,2372633.0
1768341027,30,3490101807,11,2181507:564543:568931,S00394,Old Quarry Road (west side of Aberfoyle),330.0302020984433,3,2,1,1768341019,44.25887680053711,-76.52577209472656,5.829999923706055,83.0999984741211,3904395.0
1768341027,31,3490101811,,,,,,,2,,1768340980,44.26171112060547,-76.50680541992188,0.0,,5356098.0
1768341027,32,3490101838,,,,,,,2,,1768341018,44.24060821533203,-76.51761627197266,9.4399995803833,267.3999938964844,1202995.0
1768341027,33,3490101686,802,2182144:567768:568898,S00148,Sheppard Street (east side of Montreal),446.7618742356848,9,2,1,1768341020,44.26919937133789,-76.47920989990234,8.880000114440918,347.5,781901.0
1768341027,34,3490102103,1,2181397:567441:568490,Smspr1,Montreal Street Park and Ride,3.704975495795469,1,1,1,1768341017,44.278953552246094,-76.47261047363281,0.0,,3931108.0
1768341027,35,3490102102,,,,,,,2,,1768341020,44.25136947631836,-76.56841278076172,11.9399995803833,177.6999969482422,8182120.0
1768341027,36,3490101818,702,2204800:568842:568894,S00616,Arlington Park Place (west side of Gardiners),700.6210339171461,2,2,1,1768341019,44.25490188598633,-76.57073974609375,11.65999984741211,87.19999694824219,1611960.0
1768341027,37,3490102105,2,2181348:564973:568419,S00751,Baiden Street (west side of Portsmouth),149.55728111986102,11,2,1,1768341022,44.2226448059082,-76.52532196044922,12.5,176.3000030517578,1685022.0
1768341027,38,3490101817,502,2199489:563466:568260,S00426,Kingston General Hospital (south side of Stuart),290.624871454026,15,2,1,1768341022,44.223690032958984,-76.49830627441406,11.9399995803833,82.9000015258789,3265821.0
1768341027,39,3490102104,32,2181034:566989:568432,S00503,Kingston Centre Transfer Point Platform 6,5.295354937347661,31,1,1,1768341024,44.241764068603516,-76.51680755615234,0.0,,641729.0
1768341027,40,3490100012,,,,,,,2,,1768339315,44.22077560424805,-76.51986694335938,3.75,268.5,0.0
1768341027,41,3490101365,701,2204803:564924:568896,S00745,First Canada Avenue (west side of Division),291.74979531208726,2,2,1,1768341027,44.26578140258789,-76.50150299072266,12.220000267028809,89.5,1333816.0
1768341027,42,3490100019,,,,,,,2,,1768339540,44.25972366333008,-76.5833511352539,6.429999828338623,283.0,0.0
1768341027,43,3490100007,,,,,,,2,,1768340884,44.22361755371094,-76.52542114257812,9.720000267028809,355.3999938964844,0.0
1768341027,44,3490101482,16,2192732:566831:568572,S00476,Casterton Avenue (west side of Norman Rogers),91.00136400699316,17,2,1,1768341020,44.238563537597656,-76.52318572998047,2.7699999809265137,263.29998779296875,99328.0
1768341027,45,3490100011,,,,,,,2,,1768340540,44.242576599121094,-76.4902572631836,5.809999942779541,258.20001220703125,0.0
1768341027,46,3490101478,602,2182374:567350:568551,S02038,Downtown Transfer Point Platform 5,806.2369190767456,2,2,1,1768341023,44.225677490234375,-76.4899673461914,10.550000190734863,51.0,142921.0
1768341027,47,3490101839,31,2181085:563380:568447,S00502,Kingston Centre Transfer Point Platform 4,8.61542907503065,13,1,1,1768341022,44.24192428588867,-76.51677703857422,1.1100000143051147,,10603210.0
1768341027,48,3490101816,2,2181317:566667:568414,S00055,Mowat Avenue (north side of Union),145.97743635634717,45,2,1,1768341023,44.221858978271484,-76.51829528808594,8.050000190734863,229.1999969482422,238136.0
1768341027,49,3490100033,,,,,,,2,,1768339267,44.251529693603516,-76.49649810791016,11.15999984741211,173.5,0.0
1768341027,50,3490101361,502,2199492:567056:568520,S02078,Cataraqui Centre Transfer Point Platform 2,99.12995214000242,1,0,1,1768341011,44.25495147705078,-76.57113647460938,6.380000114440918,267.20001220703125,488055.0
1768341027,51,3490101480,702,2199837:563512:568992,S00292,Barrie Street (north side of Brock),190.99480833662815,2,2,1,1768341026,44.23169708251953,-76.48908996582031,6.659999847412109,283.8999938964844,119591.0
1768341027,52,3490101805,501,2199376:563558:568960,S00521,Country Club Drive (north side of King),96.59488044792168,6,2,1,1768341012,44.22032165527344,-76.52861785888672,0.0,,1469804.0
1768341027,53,3490101813,,,,,,,2,,1768341016,44.25829315185547,-76.54039001464844,4.440000057220459,236.10000610351562,87116.0
1768341027,54,3490101502,702,2204799:568696:568923,S09210,Kingston Centre (south side of Bath),266.2355246107082,13,2,1,1768341020,44.24034881591797,-76.519775390625,0.0,,218562.0
1768341027,55,3490101477,701,2182033:564644:568925,S00292,Barrie Street (north side of Brock),139.13824234499572,2,2,1,1768341007,44.2317008972168,-76.48976135253906,5.550000190734863,289.0,364417.0
1768341027,56,3490101481,4,2199572:564290:568906,S00292,Barrie Street (north side of Brock),40.30616721809135,2,2,1,1768341023,44.231937408447266,-76.49095916748047,1.3799999952316284,,592645.0
1768341027,57,3490100041,,,,,,,2,,1768340575,44.23704147338867,-76.55616760253906,16.299999237060547,87.0999984741211,0.0
1768341027,58,3490101684,15,2181630:563531:568957,S02074,Gardiners Centre Transfer Point,12.64622733264257,25,1,1,1768341016,44.23624038696289,-76.5678482055664,0.0,,306556.0
1768341027,59,3490101837,501,2199375:566830:568261,S09032,Conservatory Drive (east side of Bayridge),840.6686276434951,11,2,1,1768341020,44.22768783569336,-76.58502960205078,7.769999980926514,265.70001220703125,315311.0
1768341027,60,3490100077,,,,,,,2,,1768339304,44.237274169921875,-76.4851303100586,14.350000381469727,357.6000061035156,0.0
1768341027,61,3490100050,,,,,,,2,,1768339897,44.22563934326172,-76.52558135986328,0.0,,0.0
1768341027,62,3490100058,,,,,,,2,,1768340016,44.266239166259766,-76.49468231201172,0.0,,0.0
1768341027,63,3490101255,,,,,,,2,,1768339529,,,,,
1768341027,64,3490100006,,,,,,,2,,1768338279,44.26130294799805,-76.50677490234375,0.0,,0.0
1768341027,65,3490101922,10,2181678:564948:568902,S09061,Amherst Drive (east side of Manitou),178.7968779000071,14,2,1,1768341023,44.22590255737305,-76.64983367919922,11.380000114440918,277.0,143592.0
1768341027,66,3490100073,,,,,,,2,,1768340991,44.224822998046875,-76.49131774902344,10.130000114440918,78.5,0.0
1768341027,67,3490101683,501,2199318:563442:568954,S09042,Kingston Centre (south side of Princess),442.1126095360799,7,2,1,1768341015,44.245330810546875,-76.52088165283203,11.380000114440918,123.80000305175781,11632.0
1768341027,68,3490101364,7,2181855:564182:569001,S00216,Derby Gate Crescent (north side of Elliott),780.8675465209989,17,2,1,1768341022,44.26331329345703,-76.49713134765625,9.4399995803833,352.0,312092.0
1768341027,69,3490100068,,,,,,,2,,1768340738,44.23115921020508,-76.48576354980469,0.0,,0.0
1768341027,70,3490101366,6,2181467:565529:568933,S09128,,,8,2,1,1768341026,44.224632263183594,-76.56985473632812,18.8799991607666,355.6000061035156,2734357.0
1768341027,71,3490101504,1,2181398:564440:568571,S02039,Downtown Transfer Point Platform 4,185.47365152778545,34,2,1,1768341020,44.23301696777344,-76.48396301269531,1.940000057220459,168.5,3360896.0
1768341027,72,3490100036,,,,,,,2,,1768340324,44.224369049072266,-76.4947509765625,0.0,,0.0
1768341027,73,3490100071,,,,,,,2,,1768340942,44.231590270996094,-76.48886108398438,3.0299999713897705,282.3999938964844,0.0
1768341027,74,3490100030,,,,,,,2,,1768339871,44.221187591552734,-76.51226806640625,0.0,,0.0
1768341027,75,3490101479,2,2181347:565570:568518,S00218,Rigney Street (south side of John Counter),229.71007151795095,41,2,1,1768341022,44.259281158447266,-76.50555419921875,9.4399995803833,88.80000305175781,931600.0
1768341027,76,3490101831,1,2181385:567551:568422,S09100,Ellis Hall (west side of University),182.54708468037342,12,2,1,1768341019,44.22787094116211,-76.4959716796875,0.8299999833106995,,613724.0
1768341027,77,3490100048,,,,,,,2,,1768339797,44.21886444091797,-76.5693588256836,2.930000066757202,175.6999969482422,0.0
1768341027,78,3490102101,502,2199491:563612:568288,S00090,Old Colony Road (west side of Bayridge),378.5403782102492,3,2,1,1768341025,44.258174896240234,-76.58416748046875,13.609999656677246,188.39999389648438,4450518.0
1768341027,79,3490100060,,,,,,,2,,1768340933,44.25835418701172,-76.56851196289062,5.449999809265137,269.8999938964844,0.0
1768341027,80,3490101510,32,2181070:567769:568283,S09149,,,1,1,1,1768341023,44.217620849609375,-76.5273666381836,0.0,,3481443.0
1768341027,81,3490101362,15,2181629:567123:568910,S00656,Princess Street (east side of Bayridge),141.55424323808535,64,2,1,1768340996,44.259033203125,-76.58385467529297,11.380000114440918,12.899999618530273,2627830.0
1768341027,82,3490100064,,,,,,,2,,1768340299,44.232032775878906,-76.49159240722656,0.0,,0.0
1768341027,83,3490101920,15,2181604:563798:568365,S00667,Holy Cross Secondary (north side of Woodbine),68.72289605390037,26,2,1,1768341018,44.25847625732422,-76.59652709960938,6.659999847412109,264.0,172206.0
1768341027,84,3490101825,15,2181603:565618:568559,S00011,1071 Acadia Drive (south side),202.63362633207603,63,2,1,1768341021,44.23230743408203,-76.59689331054688,10.0,118.80000305175781,1355172.0
1768341027,85,3490100039,,,,,,,2,,1768340128,44.22585678100586,-76.52566528320312,11.260000228881836,177.3000030517578,0.0
1768341027,86,3490100055,,,,,,,2,,1768339729,44.22731018066406,-76.52582550048828,0.8700000047683716,,0.0
1768341027,87,3490100028,,,,,,,2,,1768339562,44.2504997253418,-76.46072387695312,0.0,,0.0
1768341027,88,3490100020,,,,,,,2,,1768340700,44.26173782348633,-76.50640106201172,0.0,,0.0
1768341027,89,3490100069,,,,,,,2,,1768340365,44.226837158203125,-76.50233459472656,3.240000009536743,246.5,0.0
1768341027,90,3490100047,,,,,,,2,,1768340498,44.23297119140625,-76.48531341552734,1.1299999952316284,,0.0
1768341027,91,3490100072,,,,,,,2,,1768339515,44.23143768310547,-76.5031509399414,5.710000038146973,83.69999694824219,0.0
1768341027,92,3490101368,14,2181772:564100:568487,S09232,Taylor-Kidd Boulevard (east side of Gardiners),126.51471081821427,27,2,1,1768341010,44.25081253051758,-76.5667495727539,0.0,,46293.0
1768341027,93,3490100004,,,,,,,2,,1768340042,44.26228332519531,-76.48637390136719,4.420000076293945,265.3999938964844,0.0
1768341027,94,3490101509,22,2192698:566544:568361,S09319,,,11,2,1,1768341017,44.26462936401367,-76.47843933105469,7.5,5.199999809265137,1544526.0
1768341027,95,3490101370,12,2182325:564949:568374,S00029,Princess Mary Avenue (north side of Cambrai),172.33734573317255,26,2,1,1768341018,44.24205780029297,-76.43899536132812,11.380000114440918,164.1999969482422,217574.0
1768341027,96,3490100038,,,,,,,2,,1768340223,44.231834411621094,-76.49006652832031,9.920000076293945,281.79998779296875,0.0
1768341027,97,3490100067,,,,,,,2,,1768340303,44.25138854980469,-76.53319549560547,8.640000343322754,304.1000061035156,0.0
1768341027,98,3490100034,,,,,,,2,,1768339886,44.233543395996094,-76.48306274414062,7.760000228881836,100.0999984741211,0.0
1768341027,99,3490100026,,,,,,,2,,1768339588,44.25905990600586,-76.52220916748047,1.2300000190734863,,0.0
1768341027,100,3490100063,,,,,,,2,,1768339774,44.24486541748047,-76.58744049072266,9.260000228881836,304.1000061035156,0.0
1768341027,101,3490100037,,,,,,,2,,1768339789,44.25495147705078,-76.57266235351562,0.0,,0.0
1768341027,102,3490101506,14,2181760:563243:568400,S02083,Cataraqui Centre Transfer Point Platform 6,13.827489157334645,1,1,1,1768341000,44.254947662353516,-76.57266235351562,0.0,,173355.0
1768341027,103,3490100044,,,,,,,2,,1768340085,44.26309585571289,-76.60507202148438,12.140000343322754,103.19999694824219,0.0
1768341027,104,3490100027,,,,,,,2,,1768340972,44.25896453857422,-76.52915954589844,13.989999771118164,96.5999984741211,0.0
1768341027,105,3490100049,,,,,,,2,,1768340251,44.26249313354492,-76.48274993896484,11.470000267028809,84.0,0.0
1768341027,106,3490100040,,,,,,,2,,1768340808,44.23276138305664,-76.49028015136719,7.199999809265137,102.19999694824219,0.0
1768341027,107,3490100029,,,,,,,2,,1768340107,44.240631103515625,-76.58348846435547,9.720000267028809,115.4000015258789,0.0
1768341027,108,3490100018,,,,,,,2,,1768340150,44.2514762878418,-76.4605712890625,7.869999885559082,5.0,0.0
1768341027,109,3490101050,,,,,,,2,,1768340386,,,,,
1768341027,110,3490100051,,,,,,,2,,1768340136,44.24128341674805,-76.51705169677734,2.6700000762939453,174.89999389648438,0.0
1768341027,111,3490100023,,,,,,,2,,1768340828,44.25886917114258,-76.47103881835938,14.90999984741211,260.79998779296875,0.0
1768341027,112,3490100070,,,,,,,2,,1768340082,44.222591400146484,-76.52325439453125,12.1899995803833,264.6000061035156,0.0
1768341027,113,3490100009,,,,,,,2,,1768340691,44.241546630859375,-76.59173583984375,0.0,,0.0
1768341027,114,3490100013,,,,,,,2,,1768340814,44.25678253173828,-76.57429504394531,8.890000343322754,2.200000047683716,0.0
1768341027,115,3490100008,,,,,,,2,,1768340218,44.2419548034668,-76.56787872314453,0.46000000834465027,,0.0
1768341027,116,3490100052,,,,,,,2,,1768339393,44.25822830200195,-76.54973602294922,0.0,,0.0
1768341027,117,3490100079,,,,,,,2,,1768340896,44.262054443359375,-76.49073028564453,6.369999885559082,172.60000610351562,0.0
1768341027,118,3490100066,,,,,,,2,,1768338898,,,,,
1768341027,119,3490100059,,,,,,,2,,1768339402,44.2432746887207,-76.45333862304688,11.210000038146973,81.5999984741211,0.0
1768341027,120,3490100075,,,,,,,2,,1768339806,44.22035598754883,-76.52519989013672,0.0,,0.0
1768341027,121,3490102108,,,,,,,2,,1768340774,44.261009216308594,-76.50691986083984,0.0,,450.0
1768341027,122,3490100062,,,,,,,2,,1768340167,44.22430419921875,-76.495361328125,3.0799999237060547,90.5999984741211,0.0
1768341027,123,3490100022,,,,,,,2,,1768340566,44.23337936401367,-76.4787368774414,9.149999618530273,12.800000190734863,0.0
1768341027,124,3490102502,,,,,,,2,,1768340998,44.261131286621094,-76.50750732421875,0.0,,0.0
1768341027,125,3490100081,,,,,,,2,,1768340468,44.261451721191406,-76.50667572021484,0.0,,0.0
1768341027,126,3490100043,,,,,,,2,,1768340705,44.24900436401367,-76.56822967529297,11.670000076293945,356.29998779296875,0.0
1768341027,127,3490102403,,,,,,,2,,1768341008,44.261329650878906,-76.50679779052734,0.0,,0.0
1768341027,128,3490100074,,,,,,,2,,1768339369,44.26495361328125,-76.48127746582031,0.0,,0.0
1768341027,129,3490100017,,,,,,,2,,1768339287,44.261383056640625,-76.50676727294922,0.0,,0.0
1768341027,130,3490100042,,,,,,,2,,1768340223,44.25889587402344,-76.521484375,12.390000343322754,90.4000015258789,0.0
1768341027,131,3490100054,,,,,,,2,,1768339255,44.26704025268555,-76.5491714477539,9.979999542236328,0.0,0.0
1768341027,132,3490100002,,,,,,,2,,1768340835,44.21939468383789,-76.64730834960938,12.289999961853027,112.69999694824219,0.0
1768341057,0,3490101367,4,2199420:566261:568900,S02076,Centennial Drive (south side of Princess),129.60851322514566,4,2,1,1768341050,44.258148193359375,-76.55933380126953,7.5,90.30000305175781,4234180.0
1768341057,1,3490101951,6,2181487:564395:568524,S00520,Lake Ontario Park (south side of King),286.8673005027895,26,2,1,1768341056,44.219940185546875,-76.53387451171875,11.109999656677246,85.9000015258789,291730.0
1768341057,2,3490101369,19A,2181211:566769:568941,S09318,,,13,2,1,1768341055,44.262210845947266,-76.59947204589844,9.4399995803833,280.3999938964844,120695.0
1768341057,3,3490102106,701,2182031:568083:568958,S00763,,,11,2,1,1768341042,44.23839569091797,-76.5409164428711,9.720000267028809,262.3999938964844,860746.0
1768341057,4,3490101254,502,2199533:566750:568502,S00584,Centennial Drive (north side of Princess),109.04027514309102,10,2,1,1768341054,44.25825500488281,-76.55835723876953,8.609999656677246,271.1000061035156,1071273.0
1768341057,5,3490102402,601,2182373:565093:568495,S02080,Innovation Drive at Highway 15 (north side),6.572993931812592,1,1,1,1768341041,44.27223205566406,-76.44615936279297,0.0,,48199.0
1768341057,6,3490102401,,,,,,,2,,1768341044,44.26154327392578,-76.50714874267578,0.0,,0.0
1768341057,7,3490101841,,,,,,,2,,1768338356,,,,,
1768341057,8,3490102107,,,,,,,2,,1768341000,44.26133346557617,-76.50658416748047,0.0,,268097.0
1768341057,9,3490101688,7,2181862:567851:568424,S00746,First Canada Avenue (east side of Division),152.24898246572096,17,2,1,1768341055,44.262290954589844,-76.49819946289062,0.27000001072883606,,2193061.0
1768341057,10,3490100014,,,,,,,2,,1768340938,44.26132583618164,-76.50658416748047,0.0,,0.0
1768341057,11,3490101687,10,2181662:568003:568355,S02084,Cataraqui Centre Transfer Point Platform 7,8.164168892704382,1,1,1,1768341034,44.25513458251953,-76.57289123535156,0.0,,4877541.0
1768341057,12,3490100016,,,,,,,2,,1768339503,44.26150894165039,-76.5071029663086,0.0,,0.0
1768341057,13,3490100056,,,,,,,2,,1768340241,44.25495147705078,-76.57286071777344,0.0,,0.0
1768341057,14,3490101046,501,2199377:566555:568929,S00427,Kingston General Hospital (north side of Stuart),399.9693942650605,2,2,1,1768341045,44.22563171386719,-76.49005889892578,11.470000267028809,229.89999389648438,0.0
1768341057,15,3490101257,12,2182324:564356:568328,S00444,Queen's West Campus (north side of Union),220.6834071468168,22,2,1,1768341049,44.22404861450195,-76.51136779785156,6.659999847412109,247.10000610351562,601296.0
1768341057,16,3490100078,,,,,,,2,,1768339640,44.228397369384766,-76.57582092285156,9.619999885559082,282.29998779296875,0.0
1768341057,17,3490100005,,,,,,,2,,1768340505,44.24057388305664,-76.51881408691406,0.0,,0.0
1768341057,18,3490101359,2,2181348:564973:568419,S09179,,,6,2,1,1768341031,44.23972702026367,-76.52911376953125,0.0,,209476.0
1768341057,19,3490101901,802,2182145:564907:568994,S02040,Downtown Transfer Point Platform 6,15.524786851620341,1,1,1,1768341031,44.23131561279297,-76.48430633544922,0.0,,0.0
1768341057,20,3490101360,2,2181318:564953:568381,S00073,Rockford Place (south side of Elliott),199.07258873655132,18,2,1,1768341050,44.25605773925781,-76.5036392211914,10.279999732971191,85.0,0.0
1768341057,21,3490101258,801,2182172:563986:568895,S02039,Downtown Transfer Point Platform 4,74.13065079361601,10,1,1,1768341038,44.23104476928711,-76.48521423339844,0.8299999833106995,,411100.0
1768341057,22,3490101256,16,2192640:567862:568970,S02070,St. Lawrence College Transfer Point,19.70485686339834,1,1,1,1768341056,44.22365188598633,-76.52619171142578,1.940000057220459,145.0,1514608.0
1768341057,23,3490101923,502,2199490:566086:568242,S09037,Centre 70 Park and Ride (west side of Days),1050.3207688702983,9,2,1,1768341035,44.228328704833984,-76.57042694091797,5.550000190734863,89.0999984741211,175032.0
1768341057,24,3490101826,501,2199378:566889:568336,S02039,Downtown Transfer Point Platform 4,4.352582738109202,1,1,1,1768341053,44.23134994506836,-76.484375,0.0,,398291.0
1768341057,25,3490101812,601,2182340:565604:568390,S00127,Highway 2 at Royal Military College (north side),668.2749729285684,11,2,1,1768341056,44.23937225341797,-76.45972442626953,13.609999656677246,243.89999389648438,230906.0
1768341057,26,3490101840,602,2182357:566488:568504,S09226,Grenadier Drive (east side of Highway 15),213.89811980340298,7,2,1,1768341053,44.251853942871094,-76.46067810058594,12.220000267028809,3.0999999046325684,363987.0
1768341057,27,3490101827,16,2192639:567035:568948,S00746,First Canada Avenue (east side of Division),7.854841526970267,32,1,1,1768341056,44.26365280151367,-76.4982681274414,0.0,,2280635.0
1768341057,28,3490101821,6,2181488:565851:568442,S02002,Pembridge Crescent (south side of Taylor-Kidd),188.3654536462528,8,2,1,1768341051,44.24972152709961,-76.58753967285156,14.15999984741211,112.80000305175781,1608168.0
1768341057,29,3490101803,502,2199534:566944:568951,S00400,Andersen Drive (north side of Princess),1152.594006435193,8,2,1,1768341014,44.2532958984375,-76.53699493408203,3.880000114440918,311.5,2372633.0
1768341057,30,3490101807,11,2181507:564543:568931,S00394,Old Quarry Road (west side of Aberfoyle),208.347032024061,3,2,1,1768341053,44.25885009765625,-76.52379608154297,8.329999923706055,91.30000305175781,3904556.0
1768341057,31,3490101811,,,,,,,2,,1768341040,44.26171112060547,-76.50680541992188,0.0,,5356098.0
1768341057,32,3490101838,,,,,,,2,,1768341018,44.24060821533203,-76.51761627197266,9.4399995803833,267.3999938964844,1202995.0
1768341057,33,3490101686,802,2182144:567768:568898,Smspr1,Montreal Street Park and Ride,738.8920758846639,10,2,1,1768341056,44.273250579833984,-76.477294921875,15.550000190734863,29.700000762939453,782386.0
1768341057,34,3490102103,1,2181397:567441:568490,Smspr1,Montreal Street Park and Ride,6.506347851287322,1,1,1,1768341048,44.27900695800781,-76.4726333618164,1.3799999952316284,,3931111.0
1768341057,35,3490102102,,,,,,,2,,1768341020,44.25136947631836,-76.56841278076172,11.9399995803833,177.6999969482422,8182120.0
1768341057,36,3490101818,702,2204800:568842:568894,S00616,Arlington Park Place (west side of Gardiners),687.6626659758659,2,2,1,1768341040,44.255001068115234,-76.56895446777344,5.550000190734863,107.80000305175781,1612108.0
1768341057,37,3490102105,2,2181348:564973:568419,S02069,Beechgrove (south side of King),190.3396729679984,12,2,1,1768341037,44.22110366821289,-76.52513885498047,9.720000267028809,172.60000610351562,1685208.0
1768341057,38,3490101817,502,2199489:563466:568260,S00426,Kingston General Hospital (south side of Stuart),8.935884198681594,15,1,1,1768341055,44.22429656982422,-76.49464416503906,0.0,,3266123.0
1768341057,39,3490102104,32,2181034:566989:568432,S00503,Kingston Centre Transfer Point Platform 6,3.5977980420384106,31,1,1,1768341055,44.241783142089844,-76.51681518554688,0.0,,641729.0
1768341057,40,3490100012,,,,,,,2,,1768339315,44.22077560424805,-76.51986694335938,3.75,268.5,0.0
1768341057,41,3490101365,701,2204803:564924:568896,S00745,First Canada Avenue (west side of Division),127.01610350841523,2,2,1,1768341055,44.26533126831055,-76.4986572265625,11.65999984741211,175.60000610351562,1334084.0
1768341057,42,3490100019,,,,,,,2,,1768339540,44.25972366333008,-76.5833511352539,6.429999828338623,283.0,0.0
1768341057,43,3490100007,,,,,,,2,,1768340884,44.22361755371094,-76.52542114257812,9.720000267028809,355.3999938964844,0.0
1768341057,44,3490101482,16,2192732:566831:568572,S00480,Mulcaster Street (west side of Norman Rogers),114.593277921103,19,2,1,1768341054,44.23632049560547,-76.52306365966797,8.880000114440918,175.39999389648438,99577.0
1768341057,45,3490100011,,,,,,,2,,1768340540,44.242576599121094,-76.4902572631836,5.809999942779541,258.20001220703125,0.0
1768341057,46,3490101478,602,2182374:567350:568551,S02038,Downtown Transfer Point Platform 5,597.0817879625447,2,2,1,1768341052,44.226959228515625,-76.48789978027344,7.5,40.20000076293945,143153.0
1768341057,47,3490101839,31,2181085:563380:568447,S02052,Westdale Avenue (south side of Bath),277.1746005889906,14,2,1,1768341053,44.2407341003418,-76.51705932617188,6.940000057220459,176.5,10603355.0
1768341057,48,3490101816,2,2181317:566667:568414,S00055,Mowat Avenue (north side of Union),18.182909573960856,45,1,1,1768341053,44.22116470336914,-76.51957702636719,0.0,,238269.0
1768341057,49,3490100033,,,,,,,2,,1768339267,44.251529693603516,-76.49649810791016,11.15999984741211,173.5,0.0
1768341057,50,3490101361,502,2199492:567056:568520,S02078,Cataraqui Centre Transfer Point Platform 2,0.7615724137912846,1,1,1,1768341042,44.25498580932617,-76.57237243652344,0.0,,488153.0
1768341057,51,3490101480,702,2199837:563512:568992,S00292,Barrie Street (north side of Brock),41.685326990603265,2,2,1,1768341056,44.23198318481445,-76.49092102050781,0.0,,119735.0
1768341057,52,3490101805,501,2199376:563558:568960,S00521,Country Club Drive (north side of King),12.136211269709362,6,1,1,1768341050,44.220211029052734,-76.52983856201172,0.0,,1469903.0
1768341057,53,3490101813,,,,,,,2,,1768341016,44.25829315185547,-76.54039001464844,4.440000057220459,236.10000610351562,87116.0
1768341057,54,3490101502,702,2204799:568696:568923,S09210,Kingston Centre (south side of Bath),265.5766092781697,13,2,1,1768341055,44.2403564453125,-76.51976776123047,2.2200000286102295,,218566.0
1768341057,55,3490101477,701,2182033:564644:568925,S00292,Barrie Street (north side of Brock),14.153613461466168,2,1,1,1768341037,44.23200225830078,-76.49127960205078,0.27000001072883606,,364539.0
1768341057,56,3490101481,4,2199572:564290:568906,S00292,Barrie Street (north side of Brock),3.996701071640848,2,1,1,1768341054,44.232059478759766,-76.4914779663086,0.0,,592690.0
1768341057,57,3490100041,,,,,,,2,,1768340575,44.23704147338867,-76.55616760253906,16.299999237060547,87.0999984741211,0.0
1768341057,58,3490101684,15,2181630:563531:568957,S02074,Gardiners Centre Transfer Point,12.64622733264257,25,1,1,1768341047,44.23624038696289,-76.5678482055664,0.0,,306556.0
1768341057,59,3490101837,501,2199375:566830:568261,S09032,Conservatory Drive (east side of Bayridge),840.6686276434951,11,2,1,1768341020,44.22768783569336,-76.58502960205078,7.769999980926514,265.70001220703125,315311.0
1768341057,60,3490100077,,,,,,,2,,1768339304,44.237274169921875,-76.4851303100586,14.350000381469727,357.6000061035156,0.0
1768341057,61,3490100050,,,,,,,2,,1768339897,44.22563934326172,-76.52558135986328,0.0,,0.0
1768341057,62,3490100058,,,,,,,2,,1768340016,44.266239166259766,-76.49468231201172,0.0,,0.0
1768341057,63,3490101255,,,,,,,2,,1768339529,,,,,
1768341057,64,3490100006,,,,,,,2,,1768338279,44.26130294799805,-76.50677490234375,0.0,,0.0
1768341057,65,3490101922,10,2181678:564948:568902,S09061,Amherst Drive (east side of Manitou),49.71424807422006,14,2,1,1768341048,44.226783752441406,-76.65113830566406,10.829999923706055,3.5,143776.0
1768341057,66,3490100073,,,,,,,2,,1768340991,44.224822998046875,-76.49131774902344,10.130000114440918,78.5,0.0
1768341057,67,3490101683,501,2199318:563442:568954,S09042,Kingston Centre (south side of Princess),359.56309903775815,7,2,1,1768341031,44.24491882324219,-76.52001953125,0.0,,11725.0
1768341057,68,3490101364,7,2181855:564182:569001,S00216,Derby Gate Crescent (north side of Elliott),845.5812195522043,17,2,1,1768341032,44.26393508911133,-76.49752044677734,6.110000133514404,284.6000061035156,312178.0
1768341057,69,3490100068,,,,,,,2,,1768340738,44.23115921020508,-76.48576354980469,0.0,,0.0
1768341057,70,3490101366,6,2181467:565529:568933,S09128,,,8,2,1,1768341049,44.22806930541992,-76.5702133178711,10.829999923706055,356.5,2734733.0
1768341057,71,3490101504,1,2181398:564440:568571,S02039,Downtown Transfer Point Platform 4,99.09839909612057,34,2,1,1768341033,44.23223876953125,-76.48407745361328,5.829999923706055,192.10000610351562,3360974.0
1768341057,72,3490100036,,,,,,,2,,1768340324,44.224369049072266,-76.4947509765625,0.0,,0.0
1768341057,73,3490100071,,,,,,,2,,1768340942,44.231590270996094,-76.48886108398438,3.0299999713897705,282.3999938964844,0.0
1768341057,74,3490100030,,,,,,,2,,1768339871,44.221187591552734,-76.51226806640625,0.0,,0.0
1768341057,75,3490101479,2,2181347:565570:568518,S00746,First Canada Avenue (east side of Division),467.642525242689,42,2,1,1768341056,44.25960159301758,-76.49971008300781,11.380000114440918,85.0,932071.0
1768341057,76,3490101831,1,2181385:567551:568422,S09100,Ellis Hall (west side of University),190.1342638973185,12,2,1,1768341047,44.22793960571289,-76.4959716796875,0.0,,613724.0
1768341057,77,3490100048,,,,,,,2,,1768339797,44.21886444091797,-76.5693588256836,2.930000066757202,175.6999969482422,0.0
1768341057,78,3490102101,502,2199491:563612:568288,S09015,Bayridge Centre (west side of Bayridge),597.1280205117353,4,2,1,1768341055,44.25507736206055,-76.58707427978516,14.15999984741211,222.39999389648438,4450953.0
1768341057,79,3490100060,,,,,,,2,,1768340933,44.25835418701172,-76.56851196289062,5.449999809265137,269.8999938964844,0.0
1768341057,80,3490101510,32,2181070:567769:568283,S02069,Beechgrove (south side of King),349.57171158062766,2,2,1,1768341054,44.21786117553711,-76.5253677368164,9.15999984741211,80.30000305175781,3481620.0
1768341057,81,3490101362,15,2181629:567123:568910,S00656,Princess Street (east side of Bayridge),98.63790746928767,64,2,1,1768341041,44.25941467285156,-76.58375549316406,0.0,,2627868.0
1768341057,82,3490100064,,,,,,,2,,1768340299,44.232032775878906,-76.49159240722656,0.0,,0.0
1768341057,83,3490101920,15,2181604:563798:568365,S00668,Katharine Crescent (north side of Woodbine),205.84365131738267,27,2,1,1768341048,44.25840377807617,-76.59776306152344,6.380000114440918,262.1000061035156,172301.0
1768341057,84,3490101825,15,2181603:565618:568559,S00405,717 Roosevelt Drive (east side),471.7324041493402,64,2,1,1768341052,44.2323112487793,-76.5931396484375,2.7699999809265137,127.9000015258789,1355463.0
1768341057,85,3490100039,,,,,,,2,,1768340128,44.22585678100586,-76.52566528320312,11.260000228881836,177.3000030517578,0.0
1768341057,86,3490100055,,,,,,,2,,1768339729,44.22731018066406,-76.52582550048828,0.8700000047683716,,0.0
1768341057,87,3490100028,,,,,,,2,,1768339562,44.2504997253418,-76.46072387695312,0.0,,0.0
1768341057,88,3490100020,,,,,,,2,,1768340700,44.26173782348633,-76.50640106201172,0.0,,0.0
1768341057,89,3490100069,,,,,,,2,,1768340365,44.226837158203125,-76.50233459472656,3.240000009536743,246.5,0.0
1768341057,90,3490100047,,,,,,,2,,1768340498,44.23297119140625,-76.48531341552734,1.1299999952316284,,0.0
1768341057,91,3490100072,,,,,,,2,,1768339515,44.23143768310547,-76.5031509399414,5.710000038146973,83.69999694824219,0.0
1768341057,92,3490101368,14,2181772:564100:568487,S09232,Taylor-Kidd Boulevard (east side of Gardiners),8.726874455701848,27,1,1,1768341055,44.251285552978516,-76.56831359863281,0.0,,46465.0
1768341057,93,3490100004,,,,,,,2,,1768340042,44.26228332519531,-76.48637390136719,4.420000076293945,265.3999938964844,0.0
1768341057,94,3490101509,22,2192698:566544:568361,S09319,,,11,2,1,1768341040,44.26509475708008,-76.47956085205078,9.15999984741211,264.3999938964844,1544676.0
1768341057,95,3490101370,12,2182325:564949:568374,S00029,Princess Mary Avenue (north side of Cambrai),64.56017401370066,26,2,1,1768341056,44.240623474121094,-76.43888092041016,4.159999847412109,210.5,217744.0
1768341057,96,3490100038,,,,,,,2,,1768340223,44.231834411621094,-76.49006652832031,9.920000076293945,281.79998779296875,0.0
1768341057,97,3490100067,,,,,,,2,,1768340303,44.25138854980469,-76.53319549560547,8.640000343322754,304.1000061035156,0.0
1768341057,98,3490100034,,,,,,,2,,1768339886,44.233543395996094,-76.48306274414062,7.760000228881836,100.0999984741211,0.0
1768341057,99,3490100026,,,,,,,2,,1768339588,44.25905990600586,-76.52220916748047,1.2300000190734863,,0.0
1768341057,100,3490100063,,,,,,,2,,1768339774,44.24486541748047,-76.58744049072266,9.260000228881836,304.1000061035156,0.0
1768341057,101,3490100037,,,,,,,2,,1768339789,44.25495147705078,-76.57266235351562,0.0,,0.0
1768341057,102,3490101506,14,2181760:563243:568400,S02083,Cataraqui Centre Transfer Point Platform 6,20.617103105822405,1,1,1,1768341057,44.255165100097656,-76.57281494140625,0.0,,173355.0
1768341057,103,3490100044,,,,,,,2,,1768340085,44.26309585571289,-76.60507202148438,12.140000343322754,103.19999694824219,0.0
1768341057,104,3490100027,,,,,,,2,,1768340972,44.25896453857422,-76.52915954589844,13.989999771118164,96.5999984741211,0.0
1768341057,105,3490100049,,,,,,,2,,1768340251,44.26249313354492,-76.48274993896484,11.470000267028809,84.0,0.0
1768341057,106,3490100040,,,,,,,2,,1768340808,44.23276138305664,-76.49028015136719,7.199999809265137,102.19999694824219,0.0
1768341057,107,3490100029,,,,,,,2,,1768340107,44.240631103515625,-76.58348846435547,9.720000267028809,115.4000015258789,0.0
1768341057,108,3490100018,,,,,,,2,,1768340150,44.2514762878418,-76.4605712890625,7.869999885559082,5.0,0.0
1768341057,109,3490101050,,,,,,,2,,1768340386,,,,,
1768341057,110,3490100051,,,,,,,2,,1768340136,44.24128341674805,-76.51705169677734,2.6700000762939453,174.89999389648438,0.0
1768341057,111,3490100023,,,,,,,2,,1768340828,44.25886917114258,-76.47103881835938,14.90999984741211,260.79998779296875,0.0
1768341057,112,3490100070,,,,,,,2,,1768340082,44.222591400146484,-76.52325439453125,12.1899995803833,264.6000061035156,0.0
1768341057,113,3490100009,,,,,,,2,,1768340691,44.241546630859375,-76.59173583984375,0.0,,0.0
1768341057,114,3490100013,,,,,,,2,,1768340814,44.25678253173828,-76.57429504394531,8.890000343322754,2.200000047683716,0.0
1768341057,115,3490100008,,,,,,,2,,1768340218,44.2419548034668,-76.56787872314453,0.46000000834465027,,0.0
1768341057,116,3490100052,,,,,,,2,,1768339393,44.25822830200195,-76.54973602294922,0.0,,0.0
1768341057,117,3490100079,,,,,,,2,,1768340896,44.262054443359375,-76.49073028564453,6.369999885559082,172.60000610351562,0.0
1768341057,118,3490100066,,,,,,,2,,1768338898,,,,,
1768341057,119,3490100059,,,,,,,2,,1768339402,44.2432746887207,-76.45333862304688,11.210000038146973,81.5999984741211,0.0
1768341057,120,3490100075,,,,,,,2,,1768339806,44.22035598754883,-76.52519989013672,0.0,,0.0
1768341057,121,3490102108,,,,,,,2,,1768340774,44.261009216308594,-76.50691986083984,0.0,,450.0
1768341057,122,3490100062,,,,,,,2,,1768340167,44.22430419921875,-76.495361328125,3.0799999237060547,90.5999984741211,0.0
1768341057,123,3490100022,,,,,,,2,,1768340566,44.23337936401367,-76.4787368774414,9.149999618530273,12.800000190734863,0.0
1768341057,124,3490102502,,,,,,,2,,1768340998,44.261131286621094,-76.50750732421875,0.0,,0.0
1768341057,125,3490100081,,,,,,,2,,1768340468,44.261451721191406,-76.50667572021484,0.0,,0.0
1768341057,126,3490100043,,,,,,,2,,1768340705,44.24900436401367,-76.56822967529297,11.670000076293945,356.29998779296875,0.0
1768341057,127,3490102403,,,,,,,2,,1768341008,44.261329650878906,-76.50679779052734,0.0,,0.0
1768341057,128,3490100074,,,,,,,2,,1768339369,44.26495361328125,-76.48127746582031,0.0,,0.0
1768341057,129,3490100017,,,,,,,2,,1768339287,44.261383056640625,-76.50676727294922,0.0,,0.0
1768341057,130,3490100042,,,,,,,2,,1768340223,44.25889587402344,-76.521484375,12.390000343322754,90.4000015258789,0.0
1768341057,131,3490100054,,,,,,,2,,1768341055,44.25495529174805,-76.56880950927734,0.0,,0.0
1768341057,132,3490100002,,,,,,,2,,1768340835,44.21939468383789,-76.64730834960938,12.289999961853027,112.69999694824219,0.0
1768341087,0,3490101367,4,2199420:566261:568900,S02076,Centennial Drive (south side of Princess),3.7418358778192493,4,1,1,1768341075,44.258094787597656,-76.55767822265625,0.0,,4234306.0
1768341087,1,3490101951,6,2181487:564395:568524,S00460,Baiden Street (east side of Portsmouth),401.7040772919327,27,2,1,1768341085,44.22013854980469,-76.5297622680664,12.220000267028809,84.4000015258789,292054.0
1768341087,2,3490101369,19A,2181211:566769:568941,S09318,,,13,2,1,1768341086,44.26313400268555,-76.60523986816406,15.829999923706055,283.5,121183.0
1768341087,3,3490102106,701,2182031:568083:568958,S09030,Frontenac Mall (north side of Bath),172.21264491172113,12,2,1,1768341083,44.23814010620117,-76.5436782836914,11.109999656677246,261.79998779296875,860957.0
1768341087,4,3490101254,502,2199533:566750:568502,S02078,Cataraqui Centre Transfer Point Platform 2,1038.1679388043472,11,2,1,1768341086,44.258323669433594,-76.5602035522461,9.720000267028809,267.3999938964844,1071419.0
1768341087,5,3490102402,601,2182373:565093:568495,S02080,Innovation Drive at Highway 15 (north side),6.572993931812592,1,1,1,1768341072,44.27223205566406,-76.44615936279297,0.0,,48199.0
1768341087,6,3490102401,,,,,,,2,,1768341044,44.26154327392578,-76.50714874267578,0.0,,0.0
1768341087,7,3490101841,,,,,,,2,,1768338356,,,,,
1768341087,8,3490102107,,,,,,,2,,1768341060,44.2613410949707,-76.50658416748047,0.0,,268097.0
1768341087,9,3490101688,7,2181862:567851:568424,S00746,First Canada Avenue (east side of Division),64.02611801443909,17,2,1,1768341086,44.263084411621094,-76.4981918334961,8.329999923706055,358.0,2193159.0
1768341087,10,3490100014,,,,,,,2,,1768340938,44.26132583618164,-76.50658416748047,0.0,,0.0
1768341087,11,3490101687,10,2181662:568003:568355,S02084,Cataraqui Centre Transfer Point Platform 7,7.7936748180422075,1,1,1,1768341065,44.255130767822266,-76.57289123535156,0.0,,4877541.0
1768341087,12,3490100016,,,,,,,2,,1768339503,44.26150894165039,-76.5071029663086,0.0,,0.0
1768341087,13,3490100056,,,,,,,2,,1768340241,44.25495147705078,-76.57286071777344,0.0,,0.0
1768341087,14,3490101046,501,2199377:566555:568929,S00427,Kingston General Hospital (north side of Stuart),299.8083603704233,2,2,1,1768341075,44.224884033203125,-76.49108123779297,7.25,262.29998779296875,0.0
1768341087,15,3490101257,12,2182324:564356:568328,S00444,Queen's West Campus (north side of Union),117.5156936783751,22,2,1,1768341074,44.223724365234375,-76.51258087158203,8.050000190734863,249.3000030517578,601393.0
1768341087,16,3490100078,,,,,,,2,,1768339640,44.228397369384766,-76.57582092285156,9.619999885559082,282.29998779296875,0.0
1768341087,17,3490100005,,,,,,,2,,1768340505,44.24057388305664,-76.51881408691406,0.0,,0.0
1768341087,18,3490101359,2,2181348:564973:568419,S09179,,,6,2,1,1768341062,44.23973083496094,-76.52911376953125,0.0,,209476.0
1768341087,19,3490101901,802,2182145:564907:568994,S02040,Downtown Transfer Point Platform 6,17.797579106929497,1,1,1,1768341062,44.23133850097656,-76.48429107666016,0.0,,0.0
1768341087,20,3490101360,2,2181318:564953:568381,S00073,Rockford Place (south side of Elliott),15.345860560845743,18,1,1,1768341077,44.256202697753906,-76.50125122070312,0.0,,0.0
1768341087,21,3490101258,801,2182172:563986:568895,S02039,Downtown Transfer Point Platform 4,74.13065079361601,10,1,1,1768341068,44.23104476928711,-76.48521423339844,0.0,,411100.0
1768341087,22,3490101256,16,2192640:567862:568970,S02070,St. Lawrence College Transfer Point,23.460884355487057,1,1,1,1768341086,44.223609924316406,-76.52616882324219,0.0,,1514610.0
1768341087,23,3490101923,502,2199490:566086:568242,S09037,Centre 70 Park and Ride (west side of Days),674.6231773615406,9,2,1,1768341085,44.22496795654297,-76.56989288330078,18.610000610351562,175.6999969482422,175425.0
1768341087,24,3490101826,501,2199378:566889:568336,S02039,Downtown Transfer Point Platform 4,4.352582738109202,1,1,1,1768341084,44.23134994506836,-76.484375,0.0,,398291.0
1768341087,25,3490101812,601,2182340:565604:568390,S00127,Highway 2 at Royal Military College (north side),267.241879397059,11,2,1,1768341084,44.237632751464844,-76.4641342163086,10.829999923706055,241.1999969482422,231299.0
1768341087,26,3490101840,602,2182357:566488:568504,S09226,Grenadier Drive (east side of Highway 15),110.5989095362596,7,2,1,1768341064,44.25278091430664,-76.46058654785156,6.110000133514404,2.0999999046325684,364083.0
1768341087,27,3490101827,16,2192639:567035:568948,S09056,Weller Avenue (west side of First Canada),113.05389148878538,33,2,1,1768341079,44.26359558105469,-76.49717712402344,7.21999979019165,171.39999389648438,2280747.0
1768341087,28,3490101821,6,2181488:565851:568442,S00100,Milford Drive (south side of Taylor-Kidd),159.5067388434412,9,2,1,1768341082,44.24819564819336,-76.58271026611328,13.050000190734863,115.0999984741211,1608584.0
1768341087,29,3490101803,502,2199534:566944:568951,S00400,Andersen Drive (north side of Princess),1098.5332116655818,8,2,1,1768341069,44.253684997558594,-76.5374755859375,1.1100000143051147,,2372691.0
1768341087,30,3490101807,11,2181507:564543:568931,S00394,Old Quarry Road (west side of Aberfoyle),6.135623886787524,3,1,1,1768341087,44.25739288330078,-76.52214813232422,0.0,,3904817.0
1768341087,31,3490101811,,,,,,,2,,1768341040,44.26171112060547,-76.50680541992188,0.0,,5356098.0
1768341087,32,3490101838,,,,,,,2,,1768341087,44.24022674560547,-76.52251434326172,16.3799991607666,264.1000061035156,1203386.0
1768341087,33,3490101686,802,2182144:567768:568898,Smspr1,Montreal Street Park and Ride,314.84575027692034,10,2,1,1768341083,44.27637481689453,-76.47415161132812,17.770000457763672,36.599998474121094,782835.0
1768341087,34,3490102103,1,2181397:567441:568490,S09237,Sheppard Street (west side of Montreal),309.1913917583799,2,2,1,1768341086,44.275306701660156,-76.47541046142578,14.15999984741211,217.39999389648438,3931602.0
1768341087,35,3490102102,,,,,,,2,,1768341068,44.25069046020508,-76.56684112548828,9.4399995803833,86.30000305175781,8182312.0
1768341087,36,3490101818,702,2204800:568842:568894,S00616,Arlington Park Place (west side of Gardiners),397.9767926169013,2,2,1,1768341086,44.25240707397461,-76.56855773925781,14.720000267028809,177.89999389648438,1612414.0
1768341087,37,3490102105,2,2181348:564973:568419,S02069,Beechgrove (south side of King),170.64292346154076,12,2,1,1768341076,44.22068786621094,-76.52503967285156,0.0,,1685248.0
1768341087,38,3490101817,502,2199489:563466:568260,S00426,Kingston General Hospital (south side of Stuart),10.582492769057145,15,1,1,1768341086,44.22431945800781,-76.49463653564453,0.0,,3266123.0
1768341087,39,3490102104,32,2181034:566989:568432,S00503,Kingston Centre Transfer Point Platform 6,3.9569737814575525,31,1,1,1768341086,44.24177932739258,-76.51681518554688,0.0,,641729.0
1768341087,40,3490100012,,,,,,,2,,1768339315,44.22077560424805,-76.51986694335938,3.75,268.5,0.0
1768341087,41,3490101365,701,2204803:564924:568896,S00745,First Canada Avenue (west side of Division),3.371984232992826,2,1,1,1768341078,44.26417922973633,-76.49855041503906,0.0,,1334206.0
1768341087,42,3490100019,,,,,,,2,,1768339540,44.25972366333008,-76.5833511352539,6.429999828338623,283.0,0.0
1768341087,43,3490100007,,,,,,,2,,1768340884,44.22361755371094,-76.52542114257812,9.720000267028809,355.3999938964844,0.0
1768341087,44,3490101482,16,2192732:566831:568572,S00482,215 Norman Rogers Drive (west side),67.7946754672097,20,2,1,1768341085,44.23407745361328,-76.5228271484375,8.609999656677246,174.0,99831.0
1768341087,45,3490100011,,,,,,,2,,1768340540,44.242576599121094,-76.4902572631836,5.809999942779541,258.20001220703125,0.0
1768341087,46,3490101478,602,2182374:567350:568551,S02038,Downtown Transfer Point Platform 5,392.61286961110386,2,2,1,1768341077,44.228511810302734,-76.48651885986328,5.0,31.5,143353.0
1768341087,47,3490101839,31,2181085:563380:568447,S02052,Westdale Avenue (south side of Bath),56.14077925044429,14,2,1,1768341080,44.24070739746094,-76.5142822265625,10.270000457763672,83.19999694824219,10603601.0
1768341087,48,3490101816,2,2181317:566667:568414,S00458,McDonald Avenue (north side of King),198.1234783954559,46,2,1,1768341083,44.22092819213867,-76.52000427246094,3.609999895095825,232.39999389648438,238312.0
1768341087,49,3490100033,,,,,,,2,,1768341067,44.22116470336914,-76.51957702636719,0.0,,0.0
1768341087,50,3490101361,502,2199492:567056:568520,S02078,Cataraqui Centre Transfer Point Platform 2,1.0748174326065,1,1,1,1768341073,44.254981994628906,-76.57237243652344,0.0,,488153.0
1768341087,51,3490101480,702,2199837:563512:568992,S00292,Barrie Street (north side of Brock),41.09423157419406,2,2,1,1768341083,44.23198318481445,-76.49092864990234,0.0,,119735.0
1768341087,52,3490101805,501,2199376:563558:568960,S00524,Invista (north side of Front),2176.455330885037,7,2,1,1768341087,44.22011947631836,-76.53252410888672,11.65999984741211,265.8999938964844,1470127.0
1768341087,53,3490101813,,,,,,,2,,1768341076,44.25800704956055,-76.54082489013672,0.0,,87162.0
1768341087,54,3490101502,702,2204799:568696:568923,S09210,Kingston Centre (south side of Bath),99.90386475543374,13,2,1,1768341086,44.240455627441406,-76.51769256591797,3.049999952316284,82.69999694824219,218739.0
1768341087,55,3490101477,701,2182033:564644:568925,S00292,Barrie Street (north side of Brock),13.793904381957033,2,1,1,1768341068,44.23197555541992,-76.49131774902344,0.0,,364539.0
1768341087,56,3490101481,4,2199572:564290:568906,S00278,University Avenue (north side of Princess),430.26661097585554,3,2,1,1768341074,44.23208236694336,-76.49187469482422,8.050000190734863,261.0,592722.0
1768341087,57,3490100041,,,,,,,2,,1768340575,44.23704147338867,-76.55616760253906,16.299999237060547,87.0999984741211,0.0
1768341087,58,3490101684,15,2181630:563531:568957,S02074,Gardiners Centre Transfer Point,12.64622733264257,25,1,1,1768341078,44.23624038696289,-76.5678482055664,0.0,,306556.0
1768341087,59,3490101837,501,2199375:566830:568261,S09032,Conservatory Drive (east side of Bayridge),417.2468586339561,11,2,1,1768341086,44.22929763793945,-76.59063720703125,17.219999313354492,282.20001220703125,315827.0
1768341087,60,3490100077,,,,,,,2,,1768339304,44.237274169921875,-76.4851303100586,14.350000381469727,357.6000061035156,0.0
1768341087,61,3490100050,,,,,,,2,,1768339897,44.22563934326172,-76.52558135986328,0.0,,0.0
1768341087,62,3490100058,,,,,,,2,,1768340016,44.266239166259766,-76.49468231201172,0.0,,0.0
1768341087,63,3490101255,,,,,,,2,,1768339529,,,,,
1768341087,64,3490100006,,,,,,,2,,1768338279,44.26130294799805,-76.50677490234375,0.0,,0.0
1768341087,65,3490101922,10,2181678:564948:568902,S00787,Pittsfield Street (south side of Amherst),170.0504157180853,15,2,1,1768341084,44.22726058959961,-76.64875793457031,13.050000190734863,98.9000015258789,144044.0
1768341087,66,3490100073,,,,,,,2,,1768340991,44.224822998046875,-76.49131774902344,10.130000114440918,78.5,0.0
1768341087,67,3490101683,501,2199318:563442:568954,S09042,Kingston Centre (south side of Princess),194.08769814689066,7,2,1,1768341083,44.24412155151367,-76.51826477050781,10.550000190734863,125.0999984741211,11900.0
1768341087,68,3490101364,7,2181855:564182:569001,S00216,Derby Gate Crescent (north side of Elliott),834.6699489435506,17,2,1,1768341081,44.26387023925781,-76.49817657470703,0.0,,312228.0
1768341087,69,3490100068,,,,,,,2,,1768340738,44.23115921020508,-76.48576354980469,0.0,,0.0
1768341087,70,3490101366,6,2181467:565529:568933,S09128,,,8,1,1,1768341087,44.22840118408203,-76.57221221923828,0.0,,2734919.0
1768341087,71,3490101504,1,2181398:564440:568571,S02039,Downtown Transfer Point Platform 4,16.192872166987268,34,1,1,1768341083,44.23152542114258,-76.48442077636719,0.550000011920929,,3361053.0
1768341087,72,3490100036,,,,,,,2,,1768340324,44.224369049072266,-76.4947509765625,0.0,,0.0
1768341087,73,3490100071,,,,,,,2,,1768340942,44.231590270996094,-76.48886108398438,3.0299999713897705,282.3999938964844,0.0
1768341087,74,3490100030,,,,,,,2,,1768339871,44.221187591552734,-76.51226806640625,0.0,,0.0
1768341087,75,3490101479,2,2181347:565570:568518,S00746,First Canada Avenue (east side of Division),467.642525242689,42,2,1,1768341056,44.25960159301758,-76.49971008300781,11.380000114440918,85.0,932071.0
1768341087,76,3490101831,1,2181385:567551:568422,S09100,Ellis Hall (west side of University),171.35483241828143,12,2,1,1768341073,44.22777557373047,-76.49552917480469,2.2200000286102295,157.6999969482422,613764.0
1768341087,77,3490100048,,,,,,,2,,1768339797,44.21886444091797,-76.5693588256836,2.930000066757202,175.6999969482422,0.0
1768341087,78,3490102101,502,2199491:563612:568288,S09015,Bayridge Centre (west side of Bayridge),399.7300229239639,4,2,1,1768341069,44.25350570678711,-76.58826446533203,12.770000457763672,200.5,4451158.0
1768341087,79,3490100060,,,,,,,2,,1768340933,44.25835418701172,-76.56851196289062,5.449999809265137,269.8999938964844,0.0
1768341087,80,3490101510,32,2181070:567769:568283,S02069,Beechgrove (south side of King),174.54826256425358,2,2,1,1768341078,44.21986389160156,-76.52494049072266,9.4399995803833,355.79998779296875,3481859.0
1768341087,81,3490101362,15,2181629:567123:568910,S00656,Princess Street (east side of Bayridge),98.63790746928767,64,2,1,1768341072,44.25941467285156,-76.58375549316406,0.0,,2627868.0
1768341087,82,3490100064,,,,,,,2,,1768340299,44.232032775878906,-76.49159240722656,0.0,,0.0
1768341087,83,3490101920,15,2181604:563798:568365,S00669,Mona Drive (north side of Woodbine),176.13821116452365,28,2,1,1768341081,44.25817108154297,-76.60087585449219,8.050000190734863,264.8999938964844,172553.0
1768341087,84,3490101825,15,2181603:565618:568559,S00405,717 Roosevelt Drive (east side),135.65576361555765,64,2,1,1768341087,44.229156494140625,-76.59010314941406,14.720000267028809,101.5,1355950.0
1768341087,85,3490100039,,,,,,,2,,1768340128,44.22585678100586,-76.52566528320312,11.260000228881836,177.3000030517578,0.0
1768341087,86,3490100055,,,,,,,2,,1768339729,44.22731018066406,-76.52582550048828,0.8700000047683716,,0.0
1768341087,87,3490100028,,,,,,,2,,1768339562,44.2504997253418,-76.46072387695312,0.0,,0.0
1768341087,88,3490100020,,,,,,,2,,1768340700,44.26173782348633,-76.50640106201172,0.0,,0.0
1768341087,89,3490100069,,,,,,,2,,1768340365,44.226837158203125,-76.50233459472656,3.240000009536743,246.5,0.0
1768341087,90,3490100047,,,,,,,2,,1768340498,44.23297119140625,-76.48531341552734,1.1299999952316284,,0.0
1768341087,91,3490100072,,,,,,,2,,1768339515,44.23143768310547,-76.5031509399414,5.710000038146973,83.69999694824219,0.0
1768341087,92,3490101368,14,2181772:564100:568487,S02083,Cataraqui Centre Transfer Point Platform 6,355.5552410203502,28,2,1,1768341083,44.254127502441406,-76.56852722167969,13.880000114440918,355.70001220703125,46788.0
1768341087,93,3490100004,,,,,,,2,,1768340042,44.26228332519531,-76.48637390136719,4.420000076293945,265.3999938964844,0.0
1768341087,94,3490101509,22,2192698:566544:568361,S09320,,,12,2,1,1768341069,44.264923095703125,-76.48184967041016,6.659999847412109,262.79998779296875,1544851.0
1768341087,95,3490101370,12,2182403:567818:568374,S00029,Princess Mary Avenue (north side of Cambrai),5.674660443307918,1,1,1,1768341070,44.240623474121094,-76.43963623046875,0.27000001072883606,,217805.0
1768341087,96,3490100038,,,,,,,2,,1768340223,44.231834411621094,-76.49006652832031,9.920000076293945,281.79998779296875,0.0
1768341087,97,3490100067,,,,,,,2,,1768340303,44.25138854980469,-76.53319549560547,8.640000343322754,304.1000061035156,0.0
1768341087,98,3490100034,,,,,,,2,,1768339886,44.233543395996094,-76.48306274414062,7.760000228881836,100.0999984741211,0.0
1768341087,99,3490100026,,,,,,,2,,1768339588,44.25905990600586,-76.52220916748047,1.2300000190734863,,0.0
1768341087,100,3490100063,,,,,,,2,,1768339774,44.24486541748047,-76.58744049072266,9.260000228881836,304.1000061035156,0.0
1768341087,101,3490100037,,,,,,,2,,1768339789,44.25495147705078,-76.57266235351562,0.0,,0.0
1768341087,102,3490101506,14,2181760:563243:568400,S02083,Cataraqui Centre Transfer Point Platform 6,18.97479984212212,1,1,1,1768341060,44.255149841308594,-76.5728530883789,0.0,,173355.0
1768341087,103,3490100044,,,,,,,2,,1768340085,44.26309585571289,-76.60507202148438,12.140000343322754,103.19999694824219,0.0
1768341087,104,3490100027,,,,,,,2,,1768340972,44.25896453857422,-76.52915954589844,13.989999771118164,96.5999984741211,0.0
1768341087,105,3490100049,,,,,,,2,,1768340251,44.26249313354492,-76.48274993896484,11.470000267028809,84.0,0.0
1768341087,106,3490100040,,,,,,,2,,1768340808,44.23276138305664,-76.49028015136719,7.199999809265137,102.19999694824219,0.0
1768341087,107,3490100029,,,,,,,2,,1768340107,44.240631103515625,-76.58348846435547,9.720000267028809,115.4000015258789,0.0
1768341087,108,3490100018,,,,,,,2,,1768340150,44.2514762878418,-76.4605712890625,7.869999885559082,5.0,0.0
1768341087,109,3490101050,,,,,,,2,,1768340386,,,,,
1768341087,110,3490100051,,,,,,,2,,1768340136,44.24128341674805,-76.51705169677734,2.6700000762939453,174.89999389648438,0.0
1768341087,111,3490100023,,,,,,,2,,1768340828,44.25886917114258,-76.47103881835938,14.90999984741211,260.79998779296875,0.0
1768341087,112,3490100070,,,,,,,2,,1768340082,44.222591400146484,-76.52325439453125,12.1899995803833,264.6000061035156,0.0
1768341087,113,3490100009,,,,,,,2,,1768340691,44.241546630859375,-76.59173583984375,0.0,,0.0
1768341087,114,3490100013,,,,,,,2,,1768340814,44.25678253173828,-76.57429504394531,8.890000343322754,2.200000047683716,0.0
1768341087,115,3490100008,,,,,,,2,,1768340218,44.2419548034668,-76.56787872314453,0.46000000834465027,,0.0
1768341087,116,3490100052,,,,,,,2,,1768339393,44.25822830200195,-76.54973602294922,0.0,,0.0
1768341087,117,3490100079,,,,,,,2,,1768340896,44.262054443359375,-76.49073028564453,6.369999885559082,172.60000610351562,0.0
1768341087,118,3490100066,,,,,,,2,,1768338898,,,,,
1768341087,119,3490100059,,,,,,,2,,1768339402,44.2432746887207,-76.45333862304688,11.210000038146973,81.5999984741211,0.0
1768341087,120,3490100075,,,,,,,2,,1768339806,44.22035598754883,-76.52519989013672,0.0,,0.0
1768341087,121,3490102108,,,,,,,2,,1768340774,44.261009216308594,-76.50691986083984,0.0,,450.0
1768341087,122,3490100062,,,,,,,2,,1768340167,44.22430419921875,-76.495361328125,3.0799999237060547,90.5999984741211,0.0
1768341087,123,3490100022,,,,,,,2,,1768340566,44.23337936401367,-76.4787368774414,9.149999618530273,12.800000190734863,0.0
1768341087,124,3490102502,,,,,,,2,,1768341058,44.2612190246582,-76.5075454711914,0.0,,0.0
1768341087,125,3490100081,,,,,,,2,,1768340468,44.261451721191406,-76.50667572021484,0.0,,0.0
1768341087,126,3490100043,,,,,,,2,,1768340705,44.24900436401367,-76.56822967529297,11.670000076293945,356.29998779296875,0.0
1768341087,127,3490102403,,,,,,,2,,1768341068,44.26133346557617,-76.50679779052734,0.0,,0.0
1768341087,128,3490100074,,,,,,,2,,1768339369,44.26495361328125,-76.48127746582031,0.0,,0.0
1768341087,129,3490100017,,,,,,,2,,1768341087,44.26133728027344,-76.50679779052734,0.0,,0.0
1768341087,130,3490100042,,,,,,,2,,1768340223,44.25889587402344,-76.521484375,12.390000343322754,90.4000015258789,0.0
1768341087,131,3490100054,,,,,,,2,,1768341055,44.25495529174805,-76.56880950927734,0.0,,0.0
1768341087,132,3490100003,,,,,,,2,,1768341074,44.24042510986328,-76.52008056640625,13.470000267028809,263.6000061035156,0.0
1768341087,133,3490100002,,,,,,,2,,1768340835,44.21939468383789,-76.64730834960938,12.289999961853027,112.69999694824219,0.0
1768341117,0,3490101367,4,2199420:566261:568900,S00041,Futures Gate (south side of Princess),59.99907497000548,5,2,1,1768341114,44.258113861083984,-76.55442810058594,10.270000457763672,91.4000015258789,4234569.0
1768341117,1,3490101951,6,2181487:564395:568524,S00460,Baiden Street (east side of Portsmouth),169.53154759523224,27,2,1,1768341107,44.220375061035156,-76.52644348144531,12.220000267028809,86.9000015258789,292329.0
1768341117,2,3490101369,19A,2181211:566769:568941,S09318,,,13,1,1,1768341101,44.26341247558594,-76.6065902709961,0.0,,121279.0
1768341117,3,3490102106,701,2182031:568083:568958,S09030,Frontenac Mall (north side of Bath),5.18204037605072,12,1,1,1768341113,44.23797607421875,-76.54582977294922,0.0,,861134.0
1768341117,4,3490101254,502,2199533:566750:568502,S02078,Cataraqui Centre Transfer Point Platform 2,680.661834641901,11,2,1,1768341113,44.25831985473633,-76.5652084350586,13.329999923706055,271.0,1071818.0
1768341117,5,3490102402,601,2182373:565093:568495,S02080,Innovation Drive at Highway 15 (north side),7.313439367354204,1,1,1,1768341103,44.27223587036133,-76.4461669921875,0.0,,48199.0
1768341117,6,3490102401,,,,,,,2,,1768341104,44.261558532714844,-76.50711822509766,0.0,,0.0
1768341117,7,3490101841,,,,,,,2,,1768338356,,,,,
1768341117,8,3490102107,,,,,,,2,,1768341060,44.2613410949707,-76.50658416748047,0.0,,268097.0
1768341117,9,3490101688,7,2181862:567851:568424,S00746,First Canada Avenue (east side of Division),3.805842825123709,17,1,1,1768341115,44.26362609863281,-76.49817657470703,3.049999952316284,,2193225.0
1768341117,10,3490100014,,,,,,,2,,1768340938,44.26132583618164,-76.50658416748047,0.0,,0.0
1768341117,11,3490101687,10,2181662:568003:568355,S02084,Cataraqui Centre Transfer Point Platform 7,4.71268536814371,1,1,1,1768341096,44.25511169433594,-76.57292938232422,0.0,,4877541.0
1768341117,12,3490100016,,,,,,,2,,1768339503,44.26150894165039,-76.5071029663086,0.0,,0.0
1768341117,13,3490100056,,,,,,,2,,1768340241,44.25495147705078,-76.57286071777344,0.0,,0.0
1768341117,14,3490101046,501,2199377:566555:568929,S00427,Kingston General Hospital (north side of Stuart),126.08749683848444,2,2,1,1768341110,44.2245979309082,-76.49322509765625,7.349999904632568,259.8999938964844,0.0
1768341117,15,3490101257,12,2182324:564356:568328,S00444,Queen's West Campus (north side of Union),8.65162226414526,22,1,1,1768341117,44.22327423095703,-76.51398468017578,7.5,240.6999969482422,601523.0
1768341117,16,3490100078,,,,,,,2,,1768339640,44.228397369384766,-76.57582092285156,9.619999885559082,282.29998779296875,0.0
1768341117,17,3490100005,,,,,,,2,,1768340505,44.24057388305664,-76.51881408691406,0.0,,0.0
1768341117,18,3490101359,2,2181348:564973:568419,S09337,,,7,2,1,1768341112,44.23640441894531,-76.52796936035156,14.720000267028809,167.8000030517578,209866.0
1768341117,19,3490101901,802,2182145:564907:568994,S02040,Downtown Transfer Point Platform 6,18.21772471615227,1,1,1,1768341093,44.23134231567383,-76.48429107666016,0.0,,0.0
1768341117,20,3490101360,2,2181318:564953:568381,S02021,Division Street (south side of Elliott),25.421231791915115,19,0,1,1768341112,44.25634765625,-76.4979248046875,10.75,86.0999984741211,0.0
1768341117,21,3490101258,801,2182172:563986:568895,S02039,Downtown Transfer Point Platform 4,74.6567053925881,10,1,1,1768341099,44.23104476928711,-76.48522186279297,0.0,,411100.0
1768341117,22,3490101256,16,2192640:567862:568970,S02070,St. Lawrence College Transfer Point,37.59649073751322,1,1,1,1768341112,44.22354507446289,-76.52601623535156,5.550000190734863,119.5,1514621.0
1768341117,23,3490101923,502,2199490:566086:568242,S09037,Centre 70 Park and Ride (west side of Days),149.7848551144913,9,2,1,1768341116,44.22025680541992,-76.56946563720703,15.550000190734863,175.6999969482422,175952.0
1768341117,24,3490101826,501,2199378:566889:568336,S02039,Downtown Transfer Point Platform 4,4.764942803756162,1,1,1,1768341115,44.23134994506836,-76.48436737060547,0.0,,398291.0
1768341117,25,3490101812,601,2182340:565604:568390,S00127,Highway 2 at Royal Military College (north side),1.5420763544470628,11,1,1,1768341115,44.23647689819336,-76.46708679199219,0.0,,231557.0
1768341117,26,3490101840,602,2182357:566488:568504,S09226,Grenadier Drive (east side of Highway 15),9.421172102775637,7,1,1,1768341116,44.25383377075195,-76.46051788330078,2.7699999809265137,,364205.0
1768341117,27,3490101827,22,2192669:566423:568948,S09056,Weller Avenue (west side of First Canada),2.6459941273530814,1,1,1,1768341096,44.262596130371094,-76.49708557128906,0.0,,2280859.0
1768341117,28,3490101821,6,2181488:565851:568442,S00040,775 Progress Avenue (south side),114.13324688189984,10,2,1,1768341114,44.24802017211914,-76.5791244506836,12.770000457763672,79.4000015258789,1608875.0
1768341117,29,3490101803,502,2199534:566944:568951,S00400,Andersen Drive (north side of Princess),1098.5332116655818,8,2,1,1768341069,44.253684997558594,-76.5374755859375,1.1100000143051147,,2372691.0
1768341117,30,3490101807,11,2181507:564543:568931,S09331,,,4,2,1,1768341110,44.25709533691406,-76.5220947265625,7.769999980926514,176.10000610351562,3904852.0
1768341117,31,3490101811,,,,,,,2,,1768341100,44.2617073059082,-76.5068130493164,0.0,,5356098.0
1768341117,32,3490101838,,,,,,,2,,1768341107,44.2398681640625,-76.52616119384766,11.9399995803833,261.1000061035156,1203685.0
1768341117,33,3490101686,801,2182173:567792:568898,Smspr1,Montreal Street Park and Ride,28.420174863670635,1,0,1,1768341107,44.278717041015625,-76.47251892089844,6.940000057220459,124.9000015258789,783137.0
1768341117,34,3490102103,1,2181397:567441:568490,S09334,,,3,2,1,1768341115,44.2720947265625,-76.47830200195312,13.609999656677246,208.60000610351562,3932022.0
1768341117,35,3490102102,,,,,,,2,,1768341116,44.25083541870117,-76.56438446044922,15.0,83.0,8182517.0
1768341117,36,3490101818,702,2204800:568842:568894,S00616,Arlington Park Place (west side of Gardiners),80.08257480468355,2,2,1,1768341110,44.249549865722656,-76.568359375,8.880000114440918,176.10000610351562,1612737.0
1768341117,37,3490102105,2,2181348:564973:568419,S02069,Beechgrove (south side of King),171.4627779098321,12,2,1,1768341109,44.220611572265625,-76.52506256103516,2.5,168.0,1685256.0
1768341117,38,3490101817,502,2199489:563466:568260,S02037,Downtown Transfer Point Platform 3,979.7111566191774,16,2,1,1768341114,44.224544525146484,-76.49317169189453,11.109999656677246,78.4000015258789,3266243.0
1768341117,39,3490102104,32,2181034:566989:568432,S00503,Kingston Centre Transfer Point Platform 6,3.9569737814575525,31,1,1,1768341117,44.24177932739258,-76.51681518554688,0.0,,641729.0
1768341117,40,3490100012,,,,,,,2,,1768341115,44.250816345214844,-76.56455993652344,13.369999885559082,82.9000015258789,0.0
1768341117,41,3490101365,701,2204803:564924:568896,S09242,,,3,2,1,1768341110,44.26212692260742,-76.49839782714844,11.380000114440918,175.8000030517578,1334438.0
1768341117,42,3490100019,,,,,,,2,,1768339540,44.25972366333008,-76.5833511352539,6.429999828338623,283.0,0.0
1768341117,43,3490100007,,,,,,,2,,1768340884,44.22361755371094,-76.52542114257812,9.720000267028809,355.3999938964844,0.0
1768341117,44,3490101482,16,2192732:566831:568572,S00483,Silver Street (west side of Roden),56.19025967335973,21,2,1,1768341111,44.232460021972656,-76.52252960205078,7.21999979019165,211.0,100016.0
1768341117,45,3490100011,,,,,,,2,,1768340540,44.242576599121094,-76.4902572631836,5.809999942779541,258.20001220703125,0.0
1768341117,46,3490101478,602,2182374:567350:568551,S02038,Downtown Transfer Point Platform 5,215.98163710713038,2,2,1,1768341107,44.22986602783203,-76.4853515625,3.3299999237060547,33.599998474121094,143531.0
1768341117,47,3490101839,31,2181085:563380:568447,S00367,Leroy Grant Drive (south side of Concession),499.75848036573603,15,2,1,1768341111,44.240806579589844,-76.51321411132812,7.769999980926514,82.0999984741211,10603678.0
1768341117,48,3490101816,2,2181317:566667:568414,S00458,McDonald Avenue (north side of King),9.056417121424214,46,1,1,1768341114,44.220645904541016,-76.52234649658203,0.0,,238511.0
1768341117,49,3490100033,,,,,,,2,,1768341067,44.22116470336914,-76.51957702636719,0.0,,0.0
1768341117,50,3490101361,502,2199492:567056:568520,S02078,Cataraqui Centre Transfer Point Platform 2,1.0748174326065,1,1,1,1768341104,44.254981994628906,-76.57237243652344,0.0,,488153.0
1768341117,51,3490101480,702,2199837:563512:568992,S00292,Barrie Street (north side of Brock),7.092955517144562,2,1,1,1768341116,44.232086181640625,-76.49151611328125,0.0,,119782.0
1768341117,52,3490101805,501,2199376:563558:568960,S00524,Invista (north side of Front),1972.7324481279059,7,2,1,1768341110,44.21996307373047,-76.53507232666016,4.71999979019165,266.79998779296875,1470327.0
1768341117,53,3490101813,,,,,,,2,,1768341111,44.256752014160156,-76.54268646240234,12.5,222.5,87360.0
1768341117,54,3490101502,702,2204799:568696:568923,S09210,Kingston Centre (south side of Bath),7.351388953056355,13,1,1,1768341103,44.240535736083984,-76.51651763916016,0.27000001072883606,,218825.0
1768341117,55,3490101477,701,2182033:564644:568925,S00353,Alfred Street (north side of Brock),478.2049243674987,3,2,1,1768341113,44.23203659057617,-76.49176788330078,5.829999923706055,280.29998779296875,364573.0
1768341117,56,3490101481,4,2199572:564290:568906,S00278,University Avenue (north side of Princess),337.9218096069302,3,2,1,1768341112,44.23257827758789,-76.49281311035156,6.659999847412109,349.8999938964844,592830.0
1768341117,57,3490100041,,,,,,,2,,1768340575,44.23704147338867,-76.55616760253906,16.299999237060547,87.0999984741211,0.0
1768341117,58,3490101684,15,2181630:563531:568957,S02074,Gardiners Centre Transfer Point,12.64622733264257,25,1,1,1768341109,44.23624038696289,-76.5678482055664,0.0,,306556.0
1768341117,59,3490101837,501,2199375:566830:568261,S09032,Conservatory Drive (east side of Bayridge),104.7246390638461,11,2,1,1768341106,44.23170852661133,-76.59302520751953,14.15999984741211,356.70001220703125,316175.0
1768341117,60,3490100077,,,,,,,2,,1768341104,44.23104476928711,-76.48522186279297,0.0,,0.0
1768341117,61,3490100050,,,,,,,2,,1768339897,44.22563934326172,-76.52558135986328,0.0,,0.0
1768341117,62,3490100058,,,,,,,2,,1768340016,44.266239166259766,-76.49468231201172,0.0,,0.0
1768341117,63,3490101255,,,,,,,2,,1768339529,,,,,
1768341117,64,3490100006,,,,,,,2,,1768338279,44.26130294799805,-76.50677490234375,0.0,,0.0
1768341117,65,3490101922,10,2181678:564948:568902,S00787,Pittsfield Street (south side of Amherst),4.855106419218961,15,1,1,1768341102,44.22697830200195,-76.64672088623047,0.27000001072883606,,144204.0
1768341117,66,3490100073,,,,,,,2,,1768340991,44.224822998046875,-76.49131774902344,10.130000114440918,78.5,0.0
1768341117,67,3490101683,501,2199318:563442:568954,S09042,Kingston Centre (south side of Princess),35.92212701844366,7,1,1,1768341115,44.24300765991211,-76.51583862304688,0.0,,12102.0
1768341117,68,3490101364,7,2181855:564182:569001,S00216,Derby Gate Crescent (north side of Elliott),834.6699489435506,17,2,1,1768341112,44.26387023925781,-76.49817657470703,0.0,,312228.0
1768341117,69,3490100068,,,,,,,2,,1768340738,44.23115921020508,-76.48576354980469,0.0,,0.0
1768341117,70,3490101366,6,2181467:565529:568933,S00555,Acron Street (east side of McEwen),362.01836372506546,9,2,1,1768341113,44.22837829589844,-76.57368469238281,3.049999952316284,309.20001220703125,2735036.0
1768341117,71,3490101504,1,2181398:564440:568571,S02039,Downtown Transfer Point Platform 4,14.052580327246343,34,1,1,1768341114,44.23141098022461,-76.48458099365234,0.0,,3361053.0
1768341117,72,3490100036,,,,,,,2,,1768340324,44.224369049072266,-76.4947509765625,0.0,,0.0
1768341117,73,3490100071,,,,,,,2,,1768340942,44.231590270996094,-76.48886108398438,3.0299999713897705,282.3999938964844,0.0
1768341117,74,3490100030,,,,,,,2,,1768339871,44.221187591552734,-76.51226806640625,0.0,,0.0
1768341117,75,3490101479,2,2181347:565570:568518,S00746,First Canada Avenue (east side of Division),455.7322636525744,42,2,1,1768341099,44.25961685180664,-76.49910736083984,0.0,,932115.0
1768341117,76,3490101831,1,2181385:567551:568422,S09100,Ellis Hall (west side of University),10.173978619350647,12,1,1,1768341116,44.22624588012695,-76.4955825805664,0.0,,613930.0
1768341117,77,3490100048,,,,,,,2,,1768339797,44.21886444091797,-76.5693588256836,2.930000066757202,175.6999969482422,0.0
1768341117,78,3490102101,502,2199491:563612:568288,S09015,Bayridge Centre (west side of Bayridge),399.7300229239639,4,2,1,1768341069,44.25350570678711,-76.58826446533203,12.770000457763672,200.5,4451158.0
1768341117,79,3490100060,,,,,,,2,,1768340933,44.25835418701172,-76.56851196289062,5.449999809265137,269.8999938964844,0.0
1768341117,80,3490101510,32,2181070:567769:568283,S02068,Mowat Avenue (south side of King),50.87293109683028,3,2,1,1768341115,44.22064971923828,-76.52134704589844,10.270000457763672,85.0,3482189.0
1768341117,81,3490101362,15,2181629:567123:568910,S00658,Basswood Place (south side of Cedarwood),88.76679347518564,65,2,1,1768341116,44.26226043701172,-76.58382415771484,4.71999979019165,51.599998474121094,2628202.0
1768341117,82,3490100064,,,,,,,2,,1768340299,44.232032775878906,-76.49159240722656,0.0,,0.0
1768341117,83,3490101920,15,2181604:563798:568365,S00669,Mona Drive (north side of Woodbine),3.7500247480980184,28,1,1,1768341110,44.2580451965332,-76.6031265258789,0.0,,172732.0
1768341117,84,3490101825,15,2181603:565618:568559,S00405,717 Roosevelt Drive (east side),20.90238808147403,64,0,1,1768341117,44.229827880859375,-76.58853149414062,10.550000190734863,9.300000190734863,1356137.0
1768341117,85,3490100039,,,,,,,2,,1768340128,44.22585678100586,-76.52566528320312,11.260000228881836,177.3000030517578,0.0
1768341117,86,3490100055,,,,,,,2,,1768339729,44.22731018066406,-76.52582550048828,0.8700000047683716,,0.0
1768341117,87,3490100028,,,,,,,2,,1768339562,44.2504997253418,-76.46072387695312,0.0,,0.0
1768341117,88,3490100020,,,,,,,2,,1768340700,44.26173782348633,-76.50640106201172,0.0,,0.0
1768341117,89,3490100069,,,,,,,2,,1768340365,44.226837158203125,-76.50233459472656,3.240000009536743,246.5,0.0
1768341117,90,3490100047,,,,,,,2,,1768340498,44.23297119140625,-76.48531341552734,1.1299999952316284,,0.0
1768341117,91,3490100072,,,,,,,2,,1768339515,44.23143768310547,-76.5031509399414,5.710000038146973,83.69999694824219,0.0
1768341117,92,3490101368,14,2181772:564100:568487,S02083,Cataraqui Centre Transfer Point Platform 6,173.77059129016888,28,2,1,1768341116,44.254966735839844,-76.57064819335938,10.270000457763672,265.6000061035156,47051.0
1768341117,93,3490100004,,,,,,,2,,1768340042,44.26228332519531,-76.48637390136719,4.420000076293945,265.3999938964844,0.0
1768341117,94,3490101509,22,2192698:566544:568361,S09320,,,12,2,1,1768341112,44.26417922973633,-76.48477172851562,7.5,263.5,1545120.0
1768341117,95,3490101370,12,2182403:567818:568374,S00029,Princess Mary Avenue (north side of Cambrai),3.7829438795572856,1,1,1,1768341101,44.24061584472656,-76.43965911865234,0.0,,217805.0
1768341117,96,3490100038,,,,,,,2,,1768340223,44.231834411621094,-76.49006652832031,9.920000076293945,281.79998779296875,0.0
1768341117,97,3490100067,,,,,,,2,,1768340303,44.25138854980469,-76.53319549560547,8.640000343322754,304.1000061035156,0.0
1768341117,98,3490100034,,,,,,,2,,1768339886,44.233543395996094,-76.48306274414062,7.760000228881836,100.0999984741211,0.0
1768341117,99,3490100026,,,,,,,2,,1768339588,44.25905990600586,-76.52220916748047,1.2300000190734863,,0.0
1768341117,100,3490100063,,,,,,,2,,1768339774,44.24486541748047,-76.58744049072266,9.260000228881836,304.1000061035156,0.0
1768341117,101,3490100037,,,,,,,2,,1768339789,44.25495147705078,-76.57266235351562,0.0,,0.0
1768341117,102,3490101506,14,2181760:563243:568400,S02083,Cataraqui Centre Transfer Point Platform 6,9.926810719390776,1,1,1,1768341090,44.25490951538086,-76.57290649414062,0.0,,173355.0
1768341117,103,3490100044,,,,,,,2,,1768340085,44.26309585571289,-76.60507202148438,12.140000343322754,103.19999694824219,0.0
1768341117,104,3490100027,,,,,,,2,,1768340972,44.25896453857422,-76.52915954589844,13.989999771118164,96.5999984741211,0.0
1768341117,105,3490100049,,,,,,,2,,1768340251,44.26249313354492,-76.48274993896484,11.470000267028809,84.0,0.0
1768341117,106,3490100040,,,,,,,2,,1768340808,44.23276138305664,-76.49028015136719,7.199999809265137,102.19999694824219,0.0
1768341117,107,3490100029,,,,,,,2,,1768340107,44.240631103515625,-76.58348846435547,9.720000267028809,115.4000015258789,0.0
1768341117,108,3490100018,,,,,,,2,,1768340150,44.2514762878418,-76.4605712890625,7.869999885559082,5.0,0.0
1768341117,109,3490101050,,,,,,,2,,1768340386,,,,,
1768341117,110,3490100051,,,,,,,2,,1768340136,44.24128341674805,-76.51705169677734,2.6700000762939453,174.89999389648438,0.0
1768341117,111,3490100023,,,,,,,2,,1768340828,44.25886917114258,-76.47103881835938,14.90999984741211,260.79998779296875,0.0
1768341117,112,3490100070,,,,,,,2,,1768340082,44.222591400146484,-76.52325439453125,12.1899995803833,264.6000061035156,0.0
1768341117,113,3490100009,,,,,,,2,,1768340691,44.241546630859375,-76.59173583984375,0.0,,0.0
1768341117,114,3490100013,,,,,,,2,,1768340814,44.25678253173828,-76.57429504394531,8.890000343322754,2.200000047683716,0.0
1768341117,115,3490100008,,,,,,,2,,1768340218,44.2419548034668,-76.56787872314453,0.46000000834465027,,0.0
1768341117,116,3490100052,,,,,,,2,,1768339393,44.25822830200195,-76.54973602294922,0.0,,0.0
1768341117,117,3490100079,,,,,,,2,,1768340896,44.262054443359375,-76.49073028564453,6.369999885559082,172.60000610351562,0.0
1768341117,118,3490100066,,,,,,,2,,1768338898,,,,,
1768341117,119,3490100059,,,,,,,2,,1768339402,44.2432746887207,-76.45333862304688,11.210000038146973,81.5999984741211,0.0
1768341117,120,3490100075,,,,,,,2,,1768339806,44.22035598754883,-76.52519989013672,0.0,,0.0
1768341117,121,3490102108,,,,,,,2,,1768340774,44.261009216308594,-76.50691986083984,0.0,,450.0
1768341117,122,3490100062,,,,,,,2,,1768340167,44.22430419921875,-76.495361328125,3.0799999237060547,90.5999984741211,0.0
1768341117,123,3490100022,,,,,,,2,,1768340566,44.23337936401367,-76.4787368774414,9.149999618530273,12.800000190734863,0.0
1768341117,124,3490102502,,,,,,,2,,1768341058,44.2612190246582,-76.5075454711914,0.0,,0.0
1768341117,125,3490100081,,,,,,,2,,1768340468,44.261451721191406,-76.50667572021484,0.0,,0.0
1768341117,126,3490100043,,,,,,,2,,1768340705,44.24900436401367,-76.56822967529297,11.670000076293945,356.29998779296875,0.0
1768341117,127,3490102403,,,,,,,2,,1768341068,44.26133346557617,-76.50679779052734,0.0,,0.0
1768341117,128,3490100074,,,,,,,2,,1768339369,44.26495361328125,-76.48127746582031,0.0,,0.0
1768341117,129,3490100017,,,,,,,2,,1768341087,44.26133728027344,-76.50679779052734,0.0,,0.0
1768341117,130,3490100042,,,,,,,2,,1768340223,44.25889587402344,-76.521484375,12.390000343322754,90.4000015258789,0.0
1768341117,131,3490100054,,,,,,,2,,1768341055,44.25495529174805,-76.56880950927734,0.0,,0.0
1768341117,132,3490100003,,,,,,,2,,1768341074,44.24042510986328,-76.52008056640625,13.470000267028809,263.6000061035156,0.0
1768341117,133,3490100002,,,,,,,2,,1768340835,44.21939468383789,-76.64730834960938,12.289999961853027,112.69999694824219,0.0
1768341147,0,3490101367,4,2199420:566261:568900,S00041,Futures Gate (south side of Princess),6.096979851032984,5,1,1,1768341137,44.25810241699219,-76.55365753173828,0.0,,4234628.0
1768341147,1,3490101951,6,2181487:564395:568524,S00460,Baiden Street (east side of Portsmouth),169.53154759523224,27,2,1,1768341107,44.220375061035156,-76.52644348144531,12.220000267028809,86.9000015258789,292329.0
1768341147,2,3490101369,19A,2181211:566769:568941,S09307,,,14,2,1,1768341140,44.26342010498047,-76.60696411132812,9.15999984741211,281.20001220703125,121312.0
1768341147,3,3490102106,701,2182031:568083:568958,S00526,,,13,2,1,1768341132,44.237789154052734,-76.54715728759766,6.380000114440918,261.79998779296875,861240.0
1768341147,4,3490101254,502,2199533:566750:568502,S02078,Cataraqui Centre Transfer Point Platform 2,527.3747452262102,11,2,1,1768341131,44.258331298828125,-76.56768035888672,7.769999980926514,271.6000061035156,1072020.0
1768341147,5,3490102402,601,2182373:565093:568495,S09234,Waterside Way (west side of Highway 15),439.319699603732,2,2,1,1768341141,44.27250671386719,-76.44670867919922,7.21999979019165,309.6000061035156,48250.0
1768341147,6,3490102401,,,,,,,2,,1768341104,44.261558532714844,-76.50711822509766,0.0,,0.0
1768341147,7,3490101841,,,,,,,2,,1768338356,,,,,
1768341147,8,3490102107,,,,,,,2,,1768341120,44.261356353759766,-76.5065689086914,0.0,,268097.0
1768341147,9,3490101688,7,2181862:567851:568424,S09056,Weller Avenue (west side of First Canada),24.70382326973441,18,0,1,1768341145,44.26280212402344,-76.49711608886719,2.2200000286102295,173.3000030517578,2193424.0
1768341147,10,3490100014,,,,,,,2,,1768340938,44.26132583618164,-76.50658416748047,0.0,,0.0
1768341147,11,3490101687,10,2181662:568003:568355,S02084,Cataraqui Centre Transfer Point Platform 7,2.104648167309896,1,1,1,1768341127,44.255088806152344,-76.57293701171875,0.0,,4877541.0
1768341147,12,3490100016,,,,,,,2,,1768339503,44.26150894165039,-76.5071029663086,0.0,,0.0
1768341147,13,3490100056,,,,,,,2,,1768340241,44.25495147705078,-76.57286071777344,0.0,,0.0
1768341147,14,3490101046,501,2199377:566555:568929,S00427,Kingston General Hospital (north side of Stuart),6.389310134593888,2,1,1,1768341137,44.22437286376953,-76.49478149414062,2.5199999809265137,269.1000061035156,0.0
1768341147,15,3490101257,12,2182324:564356:568328,S00456,Yonge Street (north side of Union),96.35447596547081,23,2,1,1768341142,44.222389221191406,-76.51692962646484,10.0,251.1999969482422,601777.0
1768341147,16,3490100078,,,,,,,2,,1768339640,44.228397369384766,-76.57582092285156,9.619999885559082,282.29998779296875,0.0
1768341147,17,3490100005,,,,,,,2,,1768340505,44.24057388305664,-76.51881408691406,0.0,,0.0
1768341147,18,3490101359,2,2181348:564973:568419,S09337,,,7,1,1,1768341145,44.23448944091797,-76.52738952636719,0.0,,210070.0
1768341147,19,3490101901,802,2182145:564907:568994,S02040,Downtown Transfer Point Platform 6,18.21772471615227,1,1,1,1768341124,44.23134231567383,-76.48429107666016,0.0,,0.0
1768341147,20,3490101360,2,2181318:564953:568381,S02001,Kirkpatrick Street (west side of Division),176.59050484936915,20,2,1,1768341135,44.25475311279297,-76.49695587158203,13.9399995803833,173.5,0.0
1768341147,21,3490101258,801,2182172:563986:568895,S02039,Downtown Transfer Point Platform 4,71.70329273413407,10,1,1,1768341130,44.23106002807617,-76.48519134521484,0.0,,411100.0
1768341147,22,3490101256,16,2192640:567862:568970,S00461,Cartwright Street (south side of Churchill),104.2164873859864,2,2,1,1768341144,44.22245407104492,-76.52507781982422,6.380000114440918,89.80000305175781,1514800.0
1768341147,23,3490101923,502,2199490:566086:568242,S09037,Centre 70 Park and Ride (west side of Days),15.319918897761289,9,1,1,1768341143,44.21878433227539,-76.56935119628906,1.659999966621399,168.0,176095.0
1768341147,24,3490101826,501,2199378:566889:568336,S02039,Downtown Transfer Point Platform 4,4.764942803756162,1,1,1,1768341146,44.23134994506836,-76.48436737060547,0.0,,398291.0
1768341147,25,3490101812,601,2182340:565604:568390,S00266,Leon's Centre (west side of Ontario),782.6692582039302,12,2,1,1768341147,44.235530853271484,-76.46955871582031,15.829999923706055,246.39999389648438,231795.0
1768341147,26,3490101840,602,2182357:566488:568504,S09205,Rideau Town Centre (south side of Gore),457.4235691490348,8,2,1,1768341144,44.256805419921875,-76.4604721069336,14.720000267028809,1.5,364541.0
1768341147,27,3490101827,22,2192669:566423:568948,S09056,Weller Avenue (west side of First Canada),4.737886493865863,1,1,1,1768341142,44.26255416870117,-76.49706268310547,0.0,,2280866.0
1768341147,28,3490101821,6,2181488:565851:568442,S00606,745 Progress Avenue (south side),146.4897426554162,11,2,1,1768341143,44.24726867675781,-76.57634735107422,10.550000190734863,94.4000015258789,1609137.0
1768341147,29,3490101803,502,2199534:566944:568951,S00400,Andersen Drive (north side of Princess),1004.409100003369,8,2,1,1768341121,44.25434494018555,-76.53833770751953,3.049999952316284,316.70001220703125,2372788.0
1768341147,30,3490101807,11,2181507:564543:568931,S00387,Seaforth Road (south side of Glengarry),322.68377674200616,5,2,1,1768341138,44.25553512573242,-76.5224838256836,8.329999923706055,269.3999938964844,3905054.0
1768341147,31,3490101811,,,,,,,2,,1768341100,44.2617073059082,-76.5068130493164,0.0,,5356098.0
1768341147,32,3490101838,,,,,,,2,,1768341107,44.2398681640625,-76.52616119384766,11.9399995803833,261.1000061035156,1203685.0
1768341147,33,3490101686,801,2182173:567792:568898,Smspr1,Montreal Street Park and Ride,14.81733546647694,1,1,1,1768341127,44.27893829345703,-76.4723892211914,0.0,,783219.0
1768341147,34,3490102103,1,2181397:567441:568490,S09333,,,4,2,1,1768341145,44.271934509277344,-76.48114776611328,10.829999923706055,306.5,3932312.0
1768341147,35,3490102102,,,,,,,2,,1768341146,44.25062561035156,-76.558349609375,16.940000534057617,110.0999984741211,8182999.0
1768341147,36,3490101818,702,2204800:568842:568894,S00616,Arlington Park Place (west side of Gardiners),6.486163701352352,2,1,1,1768341142,44.248809814453125,-76.56831359863281,1.1100000143051147,,1612820.0
1768341147,37,3490102105,2,2181348:564973:568419,S02068,Mowat Avenue (south side of King),38.180464216235016,13,2,1,1768341145,44.22065353393555,-76.52118682861328,5.550000190734863,91.5,1685571.0
1768341147,38,3490101817,502,2199489:563466:568260,S02037,Downtown Transfer Point Platform 3,794.4619807668012,16,2,1,1768341140,44.22513961791992,-76.49047088623047,7.5,7.599999904632568,3266475.0
1768341147,39,3490102104,32,2181034:566989:568432,S00503,Kingston Centre Transfer Point Platform 6,3.9569737814575525,31,1,1,1768341144,44.24177932739258,-76.51681518554688,0.0,,641729.0
1768341147,40,3490100012,,,,,,,2,,1768341115,44.250816345214844,-76.56455993652344,13.369999885559082,82.9000015258789,0.0
1768341147,41,3490101365,701,2204803:564924:568896,S09242,,,3,2,1,1768341141,44.25901412963867,-76.4977035522461,11.65999984741211,163.5,1334799.0
1768341147,42,3490100019,,,,,,,2,,1768339540,44.25972366333008,-76.5833511352539,6.429999828338623,283.0,0.0
1768341147,43,3490100007,,,,,,,2,,1768340884,44.22361755371094,-76.52542114257812,9.720000267028809,355.3999938964844,0.0
1768341147,44,3490101482,16,2192732:566831:568572,S00485,Johnson Street (west side of Roden),101.27235303940195,22,2,1,1768341137,44.23167037963867,-76.52266693115234,7.21999979019165,174.10000610351562,100106.0
1768341147,45,3490100011,,,,,,,2,,1768340540,44.242576599121094,-76.4902572631836,5.809999942779541,258.20001220703125,0.0
1768341147,46,3490101478,602,2182374:567350:568551,S02038,Downtown Transfer Point Platform 5,210.5157695920489,2,2,1,1768341134,44.229915618896484,-76.48533630371094,0.0,,143538.0
1768341147,47,3490101839,31,2181085:563380:568447,S00367,Leroy Grant Drive (south side of Concession),177.31178367575896,15,2,1,1768341139,44.24116897583008,-76.50918579101562,8.880000114440918,87.30000305175781,10604011.0
1768341147,48,3490101816,2,2181317:566667:568414,S00459,Portsmouth Avenue (north side of King),52.18753509384249,47,2,1,1768341143,44.22056579589844,-76.52405548095703,6.940000057220459,265.6000061035156,238651.0
1768341147,49,3490100033,,,,,,,2,,1768341067,44.22116470336914,-76.51957702636719,0.0,,0.0
1768341147,50,3490101361,502,2199492:567056:568520,S02078,Cataraqui Centre Transfer Point Platform 2,1.0748174326065,1,1,1,1768341135,44.254981994628906,-76.57237243652344,0.0,,488153.0
1768341147,51,3490101480,702,2199837:563512:568992,S00284,York Street (east side of Division),671.0165419011291,3,2,1,1768341146,44.23210906982422,-76.491943359375,5.550000190734863,280.1000061035156,119816.0
1768341147,52,3490101805,501,2199376:563558:568960,S00524,Invista (north side of Front),1873.7384655177807,7,2,1,1768341142,44.21995544433594,-76.53631591796875,6.380000114440918,268.5,1470421.0
1768341147,53,3490101813,,,,,,,2,,1768341147,44.25248336791992,-76.54615020751953,15.829999923706055,231.89999389648438,87960.0
1768341147,54,3490101502,702,2204799:568696:568923,S09210,Kingston Centre (south side of Bath),10.06354103701654,13,1,1,1768341139,44.24055480957031,-76.51654052734375,0.0,,218825.0
1768341147,55,3490101477,701,2182033:564644:568925,S00353,Alfred Street (north side of Brock),282.72597877662486,3,2,1,1768341135,44.23236846923828,-76.49417877197266,8.609999656677246,282.0,364770.0
1768341147,56,3490101481,4,2199572:564290:568906,S00278,University Avenue (north side of Princess),272.36643412487194,3,2,1,1768341146,44.233306884765625,-76.49304962158203,3.880000114440918,348.1000061035156,592922.0
1768341147,57,3490100041,,,,,,,2,,1768340575,44.23704147338867,-76.55616760253906,16.299999237060547,87.0999984741211,0.0
1768341147,58,3490101684,15,2181630:563531:568957,S02074,Gardiners Centre Transfer Point,13.058332051467003,25,1,1,1768341140,44.236244201660156,-76.5678482055664,0.0,,306556.0
1768341147,59,3490101837,501,2199375:566830:568261,S09030,Frontenac Mall (north side of Bath),3804.2016189663227,12,2,1,1768341141,44.2329216003418,-76.59305572509766,1.940000057220459,,316303.0
1768341147,60,3490100077,,,,,,,2,,1768341104,44.23104476928711,-76.48522186279297,0.0,,0.0
1768341147,61,3490100050,,,,,,,2,,1768339897,44.22563934326172,-76.52558135986328,0.0,,0.0
1768341147,62,3490100058,,,,,,,2,,1768340016,44.266239166259766,-76.49468231201172,0.0,,0.0
1768341147,63,3490101255,,,,,,,2,,1768339529,,,,,
1768341147,64,3490100006,,,,,,,2,,1768338279,44.26130294799805,-76.50677490234375,0.0,,0.0
1768341147,65,3490101922,10,2181678:564948:568902,S00788,Upper Park Road (south side of Amherst),105.89035592635462,16,2,1,1768341146,44.226505279541016,-76.6435775756836,12.770000457763672,111.19999694824219,144461.0
1768341147,66,3490100073,,,,,,,2,,1768340991,44.224822998046875,-76.49131774902344,10.130000114440918,78.5,0.0
1768341147,67,3490101683,501,2199318:563442:568954,S00363,800 Princess Street (south side),594.7560613453542,8,2,1,1768341143,44.24232482910156,-76.514404296875,12.5,128.39999389648438,12288.0
1768341147,68,3490101364,7,2181855:564182:569001,S00216,Derby Gate Crescent (north side of Elliott),834.6699489435506,17,2,1,1768341112,44.26387023925781,-76.49817657470703,0.0,,312228.0
1768341147,69,3490100068,,,,,,,2,,1768340738,44.23115921020508,-76.48576354980469,0.0,,0.0
1768341147,70,3490101366,6,2181467:565529:568933,S00555,Acron Street (east side of McEwen),70.6204408403785,9,2,1,1768341144,44.230995178222656,-76.57393646240234,11.9399995803833,355.3999938964844,2735324.0
1768341147,71,3490101504,1,2181398:564440:568571,S02039,Downtown Transfer Point Platform 4,8.538803547015705,34,1,1,1768341125,44.231441497802734,-76.4844741821289,1.1100000143051147,,3361056.0
1768341147,72,3490100036,,,,,,,2,,1768340324,44.224369049072266,-76.4947509765625,0.0,,0.0
1768341147,73,3490100071,,,,,,,2,,1768340942,44.231590270996094,-76.48886108398438,3.0299999713897705,282.3999938964844,0.0
1768341147,74,3490100030,,,,,,,2,,1768339871,44.221187591552734,-76.51226806640625,0.0,,0.0
1768341147,75,3490101479,2,2181347:565570:568518,S00746,First Canada Avenue (east side of Division),455.7322636525744,42,2,1,1768341130,44.25961685180664,-76.49910736083984,0.0,,932115.0
1768341147,76,3490101831,1,2181385:567551:568422,S00426,Kingston General Hospital (south side of Stuart),104.79489846503515,13,2,1,1768341138,44.22502517700195,-76.49553680419922,9.4399995803833,180.6999969482422,614059.0
1768341147,77,3490100048,,,,,,,2,,1768339797,44.21886444091797,-76.5693588256836,2.930000066757202,175.6999969482422,0.0
1768341147,78,3490102101,502,2199491:563612:568288,S09015,Bayridge Centre (west side of Bayridge),83.89393976488957,4,2,1,1768341141,44.250823974609375,-76.5895767211914,8.050000190734863,200.5,4451468.0
1768341147,79,3490100060,,,,,,,2,,1768340933,44.25835418701172,-76.56851196289062,5.449999809265137,269.8999938964844,0.0
1768341147,80,3490101510,32,2181070:567769:568283,S03068,,,4,2,1,1768341147,44.220699310302734,-76.52037811279297,5.550000190734863,87.0,3482262.0
1768341147,81,3490101362,15,2181629:567123:568910,S00654,Sprucewood Crescent (south side of Cedarwood),57.025467210241665,66,2,1,1768341141,44.26211166381836,-76.58086395263672,12.220000267028809,126.0999984741211,2628458.0
1768341147,82,3490100064,,,,,,,2,,1768340299,44.232032775878906,-76.49159240722656,0.0,,0.0
1768341147,83,3490101920,15,2181604:563798:568365,S00670,Palmerston Crescent (north side of Mona),163.0523608788441,29,2,1,1768341139,44.257198333740234,-76.60356140136719,8.880000114440918,173.0,172849.0
1768341147,84,3490101825,15,2181603:565618:568559,S00588,543 Roosevelt Drive (south side),371.5841730860707,66,2,1,1768341147,44.23301315307617,-76.58870697021484,12.220000267028809,357.6000061035156,1356487.0
1768341147,85,3490100039,,,,,,,2,,1768340128,44.22585678100586,-76.52566528320312,11.260000228881836,177.3000030517578,0.0
1768341147,86,3490100055,,,,,,,2,,1768339729,44.22731018066406,-76.52582550048828,0.8700000047683716,,0.0
1768341147,87,3490100028,,,,,,,2,,1768339562,44.2504997253418,-76.46072387695312,0.0,,0.0
1768341147,88,3490100020,,,,,,,2,,1768340700,44.26173782348633,-76.50640106201172,0.0,,0.0
1768341147,89,3490100069,,,,,,,2,,1768340365,44.226837158203125,-76.50233459472656,3.240000009536743,246.5,0.0
1768341147,90,3490100047,,,,,,,2,,1768340498,44.23297119140625,-76.48531341552734,1.1299999952316284,,0.0
1768341147,91,3490100072,,,,,,,2,,1768339515,44.23143768310547,-76.5031509399414,5.710000038146973,83.69999694824219,0.0
1768341147,92,3490101368,15,2181605:566391:568487,S02083,Cataraqui Centre Transfer Point Platform 6,14.604861695890827,1,1,1,1768341137,44.25497055053711,-76.57264709472656,0.8299999833106995,,47207.0
1768341147,93,3490100004,,,,,,,2,,1768340042,44.26228332519531,-76.48637390136719,4.420000076293945,265.3999938964844,0.0
1768341147,94,3490101509,22,2192698:566544:568361,S09320,,,12,0,1,1768341142,44.26398849487305,-76.4867172241211,3.609999895095825,239.39999389648438,1545276.0
1768341147,95,3490101370,12,2182403:567818:568374,S00029,Princess Mary Avenue (north side of Cambrai),3.7829438795572856,1,1,1,1768341130,44.24061584472656,-76.43965911865234,0.0,,217805.0
1768341147,96,3490100038,,,,,,,2,,1768340223,44.231834411621094,-76.49006652832031,9.920000076293945,281.79998779296875,0.0
1768341147,97,3490100067,,,,,,,2,,1768340303,44.25138854980469,-76.53319549560547,8.640000343322754,304.1000061035156,0.0
1768341147,98,3490100034,,,,,,,2,,1768339886,44.233543395996094,-76.48306274414062,7.760000228881836,100.0999984741211,0.0
1768341147,99,3490100026,,,,,,,2,,1768339588,44.25905990600586,-76.52220916748047,1.2300000190734863,,0.0
1768341147,100,3490100063,,,,,,,2,,1768339774,44.24486541748047,-76.58744049072266,9.260000228881836,304.1000061035156,0.0
1768341147,101,3490100037,,,,,,,2,,1768339789,44.25495147705078,-76.57266235351562,0.0,,0.0
1768341147,102,3490101506,14,2181760:563243:568400,S02083,Cataraqui Centre Transfer Point Platform 6,24.162184464424872,1,1,1,1768341146,44.254783630371094,-76.57295989990234,0.0,,173355.0
1768341147,103,3490100044,,,,,,,2,,1768340085,44.26309585571289,-76.60507202148438,12.140000343322754,103.19999694824219,0.0
1768341147,104,3490100027,,,,,,,2,,1768340972,44.25896453857422,-76.52915954589844,13.989999771118164,96.5999984741211,0.0
1768341147,105,3490100049,,,,,,,2,,1768340251,44.26249313354492,-76.48274993896484,11.470000267028809,84.0,0.0
1768341147,106,3490100040,,,,,,,2,,1768340808,44.23276138305664,-76.49028015136719,7.199999809265137,102.19999694824219,0.0
1768341147,107,3490100029,,,,,,,2,,1768340107,44.240631103515625,-76.58348846435547,9.720000267028809,115.4000015258789,0.0
1768341147,108,3490100018,,,,,,,2,,1768340150,44.2514762878418,-76.4605712890625,7.869999885559082,5.0,0.0
1768341147,109,3490101050,,,,,,,2,,1768340386,,,,,
1768341147,110,3490100051,,,,,,,2,,1768340136,44.24128341674805,-76.51705169677734,2.6700000762939453,174.89999389648438,0.0
1768341147,111,3490100023,,,,,,,2,,1768340828,44.25886917114258,-76.47103881835938,14.90999984741211,260.79998779296875,0.0
1768341147,112,3490100070,,,,,,,2,,1768340082,44.222591400146484,-76.52325439453125,12.1899995803833,264.6000061035156,0.0
1768341147,113,3490100009,,,,,,,2,,1768340691,44.241546630859375,-76.59173583984375,0.0,,0.0
1768341147,114,3490100013,,,,,,,2,,1768340814,44.25678253173828,-76.57429504394531,8.890000343322754,2.200000047683716,0.0
1768341147,115,3490100008,,,,,,,2,,1768340218,44.2419548034668,-76.56787872314453,0.46000000834465027,,0.0
1768341147,116,3490100052,,,,,,,2,,1768339393,44.25822830200195,-76.54973602294922,0.0,,0.0
1768341147,117,3490100079,,,,,,,2,,1768340896,44.262054443359375,-76.49073028564453,6.369999885559082,172.60000610351562,0.0
1768341147,118,3490100066,,,,,,,2,,1768338898,,,,,
1768341147,119,3490100059,,,,,,,2,,1768339402,44.2432746887207,-76.45333862304688,11.210000038146973,81.5999984741211,0.0
1768341147,120,3490100075,,,,,,,2,,1768339806,44.22035598754883,-76.52519989013672,0.0,,0.0
1768341147,121,3490102108,,,,,,,2,,1768340774,44.261009216308594,-76.50691986083984,0.0,,450.0
1768341147,122,3490100062,,,,,,,2,,1768340167,44.22430419921875,-76.495361328125,3.0799999237060547,90.5999984741211,0.0
1768341147,123,3490100022,,,,,,,2,,1768340566,44.23337936401367,-76.4787368774414,9.149999618530273,12.800000190734863,0.0
1768341147,124,3490102502,,,,,,,2,,1768341138,44.26125717163086,-76.50767517089844,0.0,,0.0
1768341147,125,3490100081,,,,,,,2,,1768340468,44.261451721191406,-76.50667572021484,0.0,,0.0
1768341147,126,3490100043,,,,,,,2,,1768340705,44.24900436401367,-76.56822967529297,11.670000076293945,356.29998779296875,0.0
1768341147,127,3490102403,,,,,,,2,,1768341128,44.26133728027344,-76.50679779052734,0.0,,0.0
1768341147,128,3490100074,,,,,,,2,,1768339369,44.26495361328125,-76.48127746582031,0.0,,0.0
1768341147,129,3490100017,,,,,,,2,,1768341087,44.26133728027344,-76.50679779052734,0.0,,0.0
1768341147,130,3490100042,,,,,,,2,,1768340223,44.25889587402344,-76.521484375,12.390000343322754,90.4000015258789,0.0
1768341147,131,3490100054,,,,,,,2,,1768341055,44.25495529174805,-76.56880950927734,0.0,,0.0
1768341147,132,3490100003,,,,,,,2,,1768341074,44.24042510986328,-76.52008056640625,13.470000267028809,263.6000061035156,0.0
1768341147,133,3490100002,,,,,,,2,,1768340835,44.21939468383789,-76.64730834960938,12.289999961853027,112.69999694824219,0.0
